id_hotel,nombre,url_principal,ciudad,pais,latitud,longitud
252528804,Le Meridien Hotel,https://www.marriott.com/es/hotels/sclhp-le-meridien-santiago/overview/,Santiago,Chile,-33.438441,-70.6369183
252983799,Sheraton San Cristobal,https://www.marriott.com/es/hotels/sclsi-sheraton-santiago-hotel-and-convention-center/overview/,,Chile,-33.422239,-70.6207779
280813433,Hotel Portillo,https://skiportillo.com/hotel/hotel-portillo/,,Chile,-32.8351967,-70.1297613
290057441,Hotel Valle Nevado,https://www.vallenevado.com/es/hotel/hotel-valle-nevado/,,Chile,-33.3532851,-70.2485457
291684145,Refugio Escuela de Alta Montaña - Ejercito de Chile,https://www.ejercito.cl/prensa/historial-noticias?tag=Escuela%20de%20Monta%C3%B1a,,Chile,-32.845877,-70.1289385
298973459,NH Collection Hotels,https://www.nh-collection.com/es/hotel/nh-collection-plaza-santiago,Las Condes,Chile,-33.4165667,-70.6049608
307907344,Tatio,https://eltatio.net/,,Chile,-23.6652099,-70.4042697
311293399,Hotel Mediterráneo,https://www.facebook.com/hotelmediterraneoinn/?locale=es_LA,,Chile,-33.0182285,-71.5511711
311431245,La Araucana - Jamon Pan y Vino,http://www.paradorjamonpanyvino.cl/,,Chile,-36.9104966,-71.4812566
