id_hotel,nombre,url_principal,ciudad,pais,latitud,longitud
337849915,Marina Corina,,,Ecuador,0.8709472,-79.8524244
344295558,Kashama,https://kashama.com/,,Ecuador,-0.0812659,-79.2810079
344296277,Hamadryade Lodge,,,Ecuador,-1.0380197,-77.7089063
346391888,Hostal La Casona,,,Ecuador,-0.2196285,-78.5083167
346391928,Hotel Viena Internacional,,,Ecuador,-0.220948,-78.5098919
346392653,Hotel Auca Continental,,,Ecuador,-0.2217227,-78.5129601
346392783,Hotel Real Audiencia,,,Ecuador,-0.2230468,-78.5128704
346392983,Hotel Huasi Continental,,,Ecuador,-0.2228986,-78.5114606
346579926,Plaza Grande,https://www.plazagrandequito.com/,,Ecuador,-0.2195057,-78.5119646
348053681,Hotel San Francisco de Quito,,,Ecuador,-0.2224465,-78.5125175
355871774,ArcoIris,,,Ecuador,-0.4574211,-76.832665
370915523,Cumilinche Club,,,Ecuador,0.8182618,-80.0150654
370917335,Albemarle,https://www.hotelalbemarle.com/,,Ecuador,-0.9576984,-90.9661213
406455535,Le Parc,,Quito,Ecuador,-0.1838262,-78.4808698
412096481,Hotel Alexander,,,Ecuador,-2.1914147,-79.8892527
412096482,Hotel Sander,,,Ecuador,-2.1914663,-79.8890577
412096490,Hotel La Torre,,,Ecuador,-2.1930563,-79.8822422
424264939,Hotel Central,,,Ecuador,-0.9329792,-78.6148718
432739516,Madrid,,,Ecuador,-0.1015816,-78.4688045
441229936,La Isla,,,Ecuador,0.1092556,-79.2274121
441332433,Paraiso del pescador,,,Ecuador,0.0119097,-78.6731367
441403642,Casa Lojana,,,Ecuador,-3.9921259,-79.1980265
441403948,Sonesta Hotel Loja,https://www.sonestaloja.com/,"Loja, Ecuador",Ecuador,-3.9935009,-79.1977729
459400971,Rio Grande,,,Ecuador,0.3285555,-78.5456949
473604143,Hotel Bambu,https://www.hotelbambuecuador.com/,Canoa,Ecuador,-0.461332,-80.4572902
473604149,Hotel Sol y Luna,,,Ecuador,-0.4756494,-80.4527633
473604153,Posada del Sol,,,Ecuador,-0.474579,-80.4530363
493928873,Posada Ingapirca,,,Ecuador,-2.5396482,-78.8696996
495218145,Hotel Del Rey Guayaquil,,,Ecuador,-2.1903072,-79.8991399
528968203,Sacha Lodge,,,Ecuador,-0.4716968,-76.4588527
529490334,Casa Foch,,,Ecuador,-0.2019219,-78.4917075
529510392,Hacienda Cusin,https://haciendacusin.com/,,Ecuador,0.1912889,-78.1869536
531987310,Hacienda Hato Verde,,,Ecuador,-0.7919162,-78.6088265
534878408,Hotel Hacienda Abraspungo,https://haciendaabraspungo.com/,,Ecuador,-1.6401235,-78.6407183
544079388,Labarquita,,,Ecuador,-1.644228,-80.8270625
572826707,Hotel Savoy INN,,,Ecuador,-0.159243,-78.4816776
575135024,Hotel RODELU,,,Ecuador,-0.932858,-78.6157341
575135025,Hotel Rosim,,,Ecuador,-0.9324395,-78.6158681
575135027,Hotel Tilipulo,,,Ecuador,-0.9325475,-78.6166703
575135028,Residencial Santiago,,,Ecuador,-0.9324087,-78.6172872
577555910,Aparthotel Los Quipus,,,Ecuador,-0.2116575,-78.4848196
601669417,Hotel Orilla del Río,,,Ecuador,-2.1460049,-79.8689584
603997591,Hacienda La Cienega,https://www.haciendalacienega.com/,,Ecuador,-0.7719316,-78.6195048
608076757,Hotel Marcelius,http://www.hotelmarcelius.com/,,Ecuador,-2.1673566,-79.8952515
613514699,Hotel León,,,Ecuador,-2.7470604,-78.850968
617230683,Gran Hotel Paris,http://www.granhoteldelasflorescuenca.com/,Cuenca,Ecuador,-2.8956806,-79.0065727
617230686,Atenas,,,Ecuador,-2.8940853,-79.0034487
617230694,Norte,,,Ecuador,-2.8949969,-79.0009327
617230697,Las Americas,,,Ecuador,-2.8931507,-79.0004066
620040503,España,,,Ecuador,-2.8955231,-78.9970374
620040504,Tito,,,Ecuador,-2.8954257,-78.9972494
654187125,Hosteria Tororas,,,Ecuador,0.3635384,-78.0917964
660848413,Shishink,,,Ecuador,0.0568652,-79.2054672
662704213,Centro de recepción de visitantes de la Reserva Biológica Maquipucuna,https://www.maquipucuna.org/,,Ecuador,0.1243586,-78.6292297
670470282,Hosteria Puerto Lago,,,Ecuador,0.2012834,-78.2347188
671043688,Silberstein,,,Ecuador,-0.742673,-90.311142
671840310,Isla de los monos,,,Ecuador,-0.8928004,-77.8008008
671841725,Hosteria Misahualli,,,Ecuador,-1.0341687,-77.6628445
672562917,Fernandina,,,Ecuador,-0.7408644,-90.3113562
677526198,Costa del Sol,,,Ecuador,-0.7460462,-90.3127157
677526201,Elizabeth,,,Ecuador,-0.7462607,-90.3123187
677526207,Gardner,,,Ecuador,-0.7455527,-90.3128337
677526208,Flamingo,,,Ecuador,-0.7457565,-90.3127371
702801972,Fernandina,,,Ecuador,-0.7410738,-90.311332
748060798,Hotel Las Orquideas,,,Ecuador,-3.681379,-79.6833271
753841570,Rizzo Hotel,,,Ecuador,-3.2599747,-79.9609967
753872884,Hotel Regal,,Machala,Ecuador,-3.2590223,-79.9609297
754057894,Hotel Perla del Pacífico,,,Ecuador,-3.2594188,-79.9571659
754102392,Hotel los Jardines,,,Ecuador,-3.2567831,-79.9535494
754121961,Hotel Ejecutivo,,Machala,Ecuador,-3.2581598,-79.9582577
754128432,Royal Hotel,,Machala,Ecuador,-3.2597987,-79.956302
754144287,Hotel Montecarlo,,,Ecuador,-3.2571006,-79.9586494
760160632,Hotel Veuxor,,Machala,Ecuador,-3.2603586,-79.9593757
760160908,Hotel RCA,,,Ecuador,-3.2574476,-79.9561941
791825727,Royal Palm,,,Ecuador,-0.6493492,-90.3933918
804906207,Hotel Sun Beach,https://www.hotelsunbeachsalinas.com/,,Ecuador,-2.2112144,-80.9544287
804934819,Villas Mediterraneo,http://hotelvillas-mediterraneo.com.ec/,,Ecuador,-2.2079546,-80.9756758
805135972,Hotel Aragosta,http://www.hotelaragosta-ec.com/,,Ecuador,-2.2236126,-80.9409327
805136048,Hotel El Carruaje,,,Ecuador,-2.2045238,-80.9745072
805136071,Hotel Amira,http://www.hotel-amira.com/,,Ecuador,-2.1990477,-80.9825767
805136091,Hotel Salinas Costa Azul,https://www.salinashoteles.com/hotelcostazul.htm,,Ecuador,-2.2068839,-80.9708703
814629511,Tortuga Bay,,,Ecuador,-0.7404123,-90.3120033
825311656,Lobo de Mar,,,Ecuador,-0.7457885,-90.3114107
845127696,Hotel del Pacífico,,,Ecuador,-1.5574376,-80.8122868
868623498,Hotel Sol Isabela,,,Ecuador,-0.9578061,-90.9643501
889162908,OceanBCHresort,,,Ecuador,-2.6435891,-80.420399
916284844,Madisson Internacional,,,Ecuador,-0.2758753,-78.5423515
921881915,Hostería Mandála,https://hosteriamandala.info/,,Ecuador,-1.5496597,-80.8105391
927444794,Camino Real,,,Ecuador,-1.6631128,-78.6640029
931257405,Quindeloma,,,Ecuador,-1.662875,-78.6568267
931485526,Chimborazo,,,Ecuador,-1.6621938,-78.657067
931485534,Hosteria La Andaluza,https://www.hosteriaandaluza.com/,Riobamba,Ecuador,-1.5382931,-78.7325542
932352371,Mediterraneo,,,Ecuador,-2.2079772,-80.9755442
940960025,Mantahost Hotel,https://www.mantahosthotel.com/web/,Manta,Ecuador,-0.9444395,-80.7490143
941918414,Cruzcaspi,,,Ecuador,-1.0074018,-77.8092928
950054309,Hotel Coraza,,,Ecuador,0.2269528,-78.2635143
966126534,Camino al Sol,,,Ecuador,-1.0430361,-78.5928781
967210142,Punta Prieta,,,Ecuador,-0.1232262,-80.218977
988468499,Armijos,,,Ecuador,-0.2736124,-78.5482764
990219251,hosteria Flor de Canela,,,Ecuador,-1.4773818,-77.998052
991171044,Hotel Pelileo,,,Ecuador,-1.3267819,-78.543851
1012878248,Acapulco,,,Ecuador,-1.5920939,-78.9994716
1012878265,Hotel Santa Fé,,,Ecuador,-1.5921425,-78.9996343
1012878279,Hotel Colonial,,,Ecuador,-1.5919435,-78.9997118
1012878281,Balcón Cuencano,,,Ecuador,-1.5930599,-79.001796
1012878310,Marquez,,,Ecuador,-1.5914981,-78.9975817
1021407529,Spa La Mirage,,,Ecuador,0.2999538,-78.2704314
1033788708,Hostería Cabañas del Lago,,,Ecuador,0.2101601,-78.2108101
1036679353,,,,Ecuador,-0.18588,-76.6465013
1036679636,Patricia,,,Ecuador,-0.187512,-76.6479752
1038882509,Gran Hotel Lago,,,Ecuador,0.0835198,-76.8914741
1038883231,La Posada,,,Ecuador,0.0823051,-76.8842037
1038883232,Araza,,,Ecuador,0.08237,-76.8847002
1038890328,Bambu,,,Ecuador,-0.297322,-76.8574112
1054830760,Zurita,,,Ecuador,-0.4500047,-76.9976393
1084457122,Hotel Truinfo,,,Ecuador,-2.3291497,-79.4062014
1098152398,Acantilado,,,Ecuador,0.836538,-79.9376822
1115722862,El Escorial,,,Ecuador,-4.5808998,-79.4260504
1118801166,Cabanas del rio,,,Ecuador,0.1239543,-79.2706082
1122874721,Filia. Brionez Alay,,,Ecuador,-0.2772223,-78.5437885
1147236863,Hosteria Farallon Dillon,,,Ecuador,-2.1986085,-80.861073
1208294173,España Hotel,,,Ecuador,-0.2395299,-79.1715448
1208294176,Ejecutivo,,,Ecuador,-0.2395245,-79.1718318
1208294189,Villa María,,,Ecuador,-0.2394883,-79.1721215
1208294221,chifa,,,Ecuador,-1.0393469,-79.4750224
1208294237,El Mirador,,,Ecuador,-0.2386839,-79.1680213
1208294289,Torre Azul,,,Ecuador,-0.2390409,-79.1726346
1208294296,Los Ceibos,,,Ecuador,-0.2394494,-79.1727841
1208294300,Shyri,,,Ecuador,-0.2395714,-79.1712029
1208294301,Benalcázar,,,Ecuador,-0.222236,-78.515576
1229676939,Ensueños,,,Ecuador,-2.8975903,-78.9971883
1229676960,Los Helechos,,,Ecuador,-2.8912941,-78.9942787
1232497483,Hotel Verde Azul,,,Ecuador,-0.7398215,-90.3115066
1233264332,Palmeras,,,Ecuador,-0.7461776,-90.3133105
1233761196,Sara Espindola,,,Ecuador,0.8125433,-77.7170623
1233762856,Machado,,,Ecuador,0.8131024,-77.7175422
1270830300,La Isla del Descanso,,,Ecuador,-0.9550477,-90.9662107
1270830322,Volcano,,,Ecuador,-0.9564888,-90.969004
1275466834,El Prado,,,Ecuador,0.3647474,-78.1120673
1275501340,Hotel La Playa,,,Ecuador,0.4556403,-78.0100058
1275501369,Oasis Hosteria,,,Ecuador,0.4477242,-78.0067956
1313734249,Red Mangrove,,,Ecuador,-0.7427824,-90.3097686
1315244299,Hotel Mexico,,,Ecuador,-2.2257041,-80.8567295
1328047855,Sol y Agua,,,Ecuador,-3.279668,-79.3024623
1350844342,Hotel Montecarlo,,,Ecuador,0.3505196,-78.1231999
1350968182,Hotel La Estancia Real,,,Ecuador,-0.5155029,-78.5663651
1351891492,Hotel El Refugio,,Salinas de Guaranda,Ecuador,-1.4046145,-79.0208271
1352056517,Hotel Miravalle,,,Ecuador,-0.5152846,-78.5667563
1373885246,Hotel Ramses,,"Loja, Ecuador",Ecuador,-3.9951978,-79.2025523
1373885480,Hotel Libertador,,"Loja, Ecuador",Ecuador,-3.995305,-79.2024281
1374396531,Sussy,,,Ecuador,-1.679634,-78.6615235
1377260080,Hostal Milenium,,,Ecuador,-1.4874976,-77.9991639
1377269257,Hotel Dusseldorf,,,Ecuador,-1.3975474,-78.4224434
1383978837,Pension Jean's Home,,,Ecuador,-0.7506687,-90.3108436
1401711043,la Cascada,,,Ecuador,0.082161,-76.8812903
1417606161,Hotel El Cisne,,,Ecuador,-1.6634424,-78.6604137
1418392976,El Molino,,,Ecuador,-1.6675796,-78.6620824
1418392977,San Pedro de Riobamba,,,Ecuador,-1.6696085,-78.653453
1418392979,Canadá,,,Ecuador,-1.6611761,-78.66286
1418392980,Riobamba Inn,,,Ecuador,-1.6691922,-78.6525446
1418392981,Glamour Hotel,,Riobamba,Ecuador,-1.6654345,-78.6573457
1462960365,Residential House,,,Ecuador,-0.8527708,-91.026713
1470405834,Miller's Hotel,,,Ecuador,0.8698973,-79.8538363
1470405837,El Coco,,,Ecuador,0.8700085,-79.8539479
1470405842,Hotel Marsjhu,,,Ecuador,0.8703014,-79.8542553
1470405843,Seaquarium,,,Ecuador,0.8702347,-79.8539661
1475323518,Jardin El Relax,,,Ecuador,-1.4774571,-77.9979221
1496769400,Grand Hotel Loja,,"Loja, Ecuador",Ecuador,-3.9985176,-79.2051665
1507885034,Hotel Boutique Plaza Sucre,,,Ecuador,-0.2228687,-78.5118712
1518937751,Yumbo SPA,,,Ecuador,0.1556497,-78.7332771
1523483947,IsaMare,,,Ecuador,-0.9575061,-90.9637047
1523483949,Hotel Boutique: Casa de Marita,,,Ecuador,-0.9582173,-90.9633681
1523483990,Sierra Negra,,,Ecuador,-0.957273,-90.9675043
1526602222,La gringa,,,Ecuador,-1.8261686,-80.7536
1527739037,Selina Montanita,,,Ecuador,-1.8266749,-80.7531858
1537790688,Red Mangrove,,,Ecuador,-0.9580633,-90.9638496
1564152794,Hostal Fevilamir,,,Ecuador,0.3455202,-78.1226712
1569488386,Manaba,,,Ecuador,0.067556,-80.057332
1569488398,Royal Hotel,http://www.royal-hotel.com.ec,,Ecuador,0.0670449,-80.0590831
1583355178,La Casa de Nelly,,,Ecuador,-0.8987495,-89.6082656
1584738021,Hotel Lago Imperial,,,Ecuador,0.083256,-76.8797428
1584738022,Hotel San Carlos,,,Ecuador,0.0861716,-76.8815547
1584738026,Hotel Selva Real,,,Ecuador,0.08242,-76.8804692
1594223840,Casita de la Playa,,,Ecuador,-0.9573904,-90.9673917
1597046045,Cerro Azul,http://www.hostalisbelagalapagos.com/,,Ecuador,-0.9560375,-90.9645816
1597046103,San Vicente,,,Ecuador,-0.9550188,-90.9643789
1597046105,Sandrita,,,Ecuador,-0.9539094,-90.9644322
1608968879,Hostal del Rio,,,Ecuador,-1.4819164,-77.9983912
1608971410,Hostal Las Palmas,,,Ecuador,-1.4830199,-77.9991742
1609299584,Hotel San Patricio,,,Ecuador,-1.4814009,-78.0000372
1611045999,Hosteria Turingia,,,Ecuador,-1.4866568,-78.0014683
1611070431,Hotel Posada Real,,,Ecuador,-1.4835036,-77.9973055
1611154422,Hotel LF,http://www.lfhotelpuyo.com/,Puyo,Ecuador,-1.488834,-78.0068971
1611767720,Gran Hotel Cofanes,https://cofanes.com/,,Ecuador,-1.4858935,-77.9986324
1613091644,Hotel Oro Negro,,,Ecuador,-1.4906904,-77.9990655
1613649981,Hotel Araucano Ecuador,,,Ecuador,-1.4858546,-77.9987833
1618375771,Hacienda Rumiloma,,,Ecuador,-0.177247,-78.523768
1620532127,Jardines del Rio Hotel,,,Ecuador,-4.0195072,-79.2037224
1635239296,Hosteria Achacaspi,,,Ecuador,-1.5089975,-78.0100889
1635242706,Hosteria Isla del Sol,,,Ecuador,-1.5009227,-78.0096381
1635279705,Hosteria Lizanez,,,Ecuador,-1.5052444,-78.0435366
1635303101,Hoteria Kyndy Yacu,,,Ecuador,-1.4729668,-77.9499597
1641409764,Hotel Delfin Rosado,,,Ecuador,-1.4861531,-78.0005723
1656114708,Hostal El Portal,,,Ecuador,0.3473746,-78.11906
1664870960,Hakuna Matata,https://www.hakunamatata-ecuador.com/,,Ecuador,-0.9138849,-77.8402896
1676514113,Der Alte Fritz,,,Ecuador,0.8732522,-79.8500328
1676514157,Sambaye,,,Ecuador,0.8717894,-79.8522958
1676514208,Titanic Atlantis,,,Ecuador,0.8753575,-79.8446798
1676514250,Sirenis Beach,,,Ecuador,0.871826,-79.8522112
1676514277,Luna y Mar,,,Ecuador,0.8752695,-79.8468252
1676514279,Esperanza Marina,,,Ecuador,0.875036,-79.8466248
1676514298,Vasquez,,,Ecuador,0.8696432,-79.8536115
1676514311,Juan Sebastian,,,Ecuador,0.8737302,-79.8493565
1677381827,Hotel Punto de Oro,,,Ecuador,-0.7884696,-80.233328
1682767492,Club Real,,,Ecuador,0.8717179,-79.8524096
1682767493,Costa Paraiso,,,Ecuador,0.8746504,-79.8481048
1682767499,El Camino Real,,,Ecuador,0.8769053,-79.844276
1682767500,El Coco,,,Ecuador,0.8702014,-79.8539176
1682767503,El Tiburón,,,Ecuador,0.872099,-79.8517902
1682767514,Le' Castell,,,Ecuador,0.8731205,-79.8502431
1682767517,Malecon Inn,,,Ecuador,0.8719778,-79.8519941
1682767519,Milamar,,,Ecuador,0.8727977,-79.8507858
1682767520,Mira Valle,,,Ecuador,0.8703613,-79.8543178
1682767523,Orus,,,Ecuador,0.8726316,-79.8509547
1682767537,Puerto Manglar,,,Ecuador,0.8745004,-79.8463909
1682767681,Hotel Playa Tonsupa,,,Ecuador,0.8871678,-79.8225301
1683858555,Azul Real,,,Ecuador,0.8703025,-79.8525075
1683858561,Hotel Bachita,,,Ecuador,0.8710929,-79.8521606
1683858622,Cielo Azul,,,Ecuador,0.8697389,-79.8533347
1683858779,Las Vegas,,,Ecuador,0.8709662,-79.8486167
1683858847,Oro Blanco,,,Ecuador,0.8700711,-79.8499231
1683858879,Occidentales,,,Ecuador,0.8692387,-79.8505646
1686029574,Ecoparque,,,Ecuador,-1.5047628,-78.0369123
1686043019,Hostería Shell,,Shell,Ecuador,-1.4984247,-78.0669742
1698463319,Suites González Suárez,,,Ecuador,-0.2003757,-78.4791495
1725470548,Hotel la Colina,,,Ecuador,-1.4695636,-77.9881359
1731307456,Hostería de Vilcabamba,,,Ecuador,-4.2517304,-79.225286
1761225923,K-leta,,,Ecuador,-0.7435619,-90.3134253
1761225930,Mainao Inn,https://www.hotelmainao.com/,,Ecuador,-0.7434583,-90.313498
1769692005,Albatros,,,Ecuador,-0.9015657,-89.6114806
1769692025,Northia,,,Ecuador,-0.9032572,-89.6108882
1769692027,San Francisco,,,Ecuador,-0.9016649,-89.6115532
1776157165,Hostería San José de Sigchos,https://sanjosedesigchos.com/,,Ecuador,-0.7213419,-78.8896509
1778215619,Chat Noir Hotel,,"Cuenca, Ecuador",Ecuador,-2.8955358,-79.0037288
1778229069,Castilla de León,,,Ecuador,-2.8956047,-79.0015343
1784872547,Sol de oriente,,,Ecuador,-2.3067183,-78.1198928
1784872553,La jungla,,,Ecuador,-2.3034461,-78.1190414
1784872565,Los Helechos,,,Ecuador,-2.3065283,-78.1194098
1784872570,Heliconia,,,Ecuador,-2.3061102,-78.1192542
1784872574,Nivel 5,,,Ecuador,-2.3082757,-78.1195332
1784872575,La Guayusa,,,Ecuador,-2.3009613,-78.1159179
1787519934,,,,Ecuador,-1.790968,-79.287954
1789429090,LaLiria,,,Ecuador,-2.3081997,-78.1244984
1801278772,Hotel La Misión,,,Ecuador,-0.4721358,-76.9806182
1803049523,Galapagos Safari,,,Ecuador,-0.6181294,-90.4257924
1827899930,Hotel España,,,Ecuador,0.8897064,-79.8190538
1838958845,Hotel Balsapamba,,,Ecuador,-1.7670404,-79.1833181
1850837669,"Hostería ""El Troje""",,,Ecuador,-1.7079822,-78.6132939
1851484664,Hostal Aya Huma,http://ayahuma.com,,Ecuador,0.2467345,-78.2460805
1852099933,Cotopaxi Hotel  - Cuello de Luna,http://www.cuellodeluna.com,Pastocalle - Cotopaxi -Latacunga,Ecuador,-0.6946197,-78.5952184
1862226166,Hostel Oasis,http://oasishostelriobamba.com,,Ecuador,-1.6753938,-78.6445387
1870734546,L'Auberge Espagnole,,,Ecuador,-1.0357081,-77.6685897
1883306098,Cabaña Rio Napo,,,Ecuador,-1.037743,-77.6655149
1883313389,El Paisano,,,Ecuador,-1.0345993,-77.6673074
1883314939,El Clarke,,,Ecuador,-1.0355733,-77.6675834
1883341484,El Jardin Aleman,,,Ecuador,-1.0185279,-77.6723226
1891903534,Jalisco,,,Ecuador,-2.3028099,-78.1190262
1895721969,Hotel L' Moled,,,Ecuador,-3.4796436,-80.2422952
1895721996,Hotel Rodey,,,Ecuador,-3.4800238,-80.2389843
1895730970,Grand Hotel las Orquedeas South,,,Ecuador,-3.4865244,-80.2163153
1907427672,Hotel Puerto Lucia,,,Ecuador,-2.2192042,-80.9218813
1952783290,Royal de Cameron Punta Centinela,,,Ecuador,-2.1575358,-80.8108096
1981385817,Iranduba,,,Ecuador,-2.3032259,-78.1199385
1981385845,Don Humbert,,,Ecuador,-2.3029291,-78.1199112
1996650427,Coloma,,,Ecuador,-0.7436286,-90.3156122
1996650465,Pelican Bay Inn,,,Ecuador,-0.7425423,-90.3122316
1996650470,Santa Cruz,,,Ecuador,-0.7440514,-90.3149677
2040746457,Hostal Antisana,,,Ecuador,-0.3637438,-78.148726
2047145373,Hostería Pampallacta Termales,https://pampallactatermales.com/,,Ecuador,-0.3702467,-78.148007
2048179908,Hostal Shaw,,,Ecuador,-1.0351233,-77.6668479
2061973250,,,,Ecuador,-1.3123787,-78.5044679
2077913679,Mindo Garden,,,Ecuador,-0.0734544,-78.7541057
2092827853,Mindo Real,,,Ecuador,-0.0567291,-78.7802974
2124079788,Hostal peleusi,,,Ecuador,-2.7378335,-78.8469436
2134074356,La Estelita,,,Ecuador,0.3474294,-78.091638
2161441679,Samona Lodge,www.samonalodge.com,,Ecuador,-0.031042,-76.1660758
2168781363,Hotel Riviera-Sucre,https://www.rivierasucre.com/esp_index.html,,Ecuador,0.224561,-78.263054
2184998963,Chachimbiro (GPI),,,Ecuador,0.4591102,-78.2383953
2189776595,Mi kaleta,,,Ecuador,-3.4052975,-78.5819238
2191837739,El Alamo,,,Ecuador,-0.9312448,-78.6177094
2216472201,Hotel Sol del Sur,,Huaquillas,Ecuador,-3.482025,-80.235327
2238712725,Hacienda Guachalá,,,Ecuador,-0.023375,-78.1707405
2260906798,Mindo Lago,,,Ecuador,-0.0483236,-78.7740327
2270107110,Bird Planet,,,Ecuador,-0.0544836,-78.7727852
2284430447,Septimo Paraiso,,,Ecuador,-0.0302628,-78.763886
2296087789,Zafiro Boutique,,,Ecuador,-0.0519303,-78.7763849
2296087826,Las Tangaras,,,Ecuador,-0.0517967,-78.7768693
2296089755,Cabañas Las Luciernagas,,,Ecuador,-0.0511426,-78.7803115
2308405331,Casa Divina Lodge,,,Ecuador,-0.0660059,-78.7692815
2308405340,Kumbha Mela,,,Ecuador,-0.0578626,-78.7722288
2308405345,La Posada de Mindo,,,Ecuador,-0.0517682,-78.7737064
2308405348,Terra Bambú,,,Ecuador,-0.0593333,-78.7720935
2336446369,Hotel Casa Blanca,,,Ecuador,-1.6068425,-78.6107216
2337333911,Hotel Pariso de Isabela,,,Ecuador,-0.954463,-90.964739
2395561043,Hotel La Castellana,,"Loja, Ecuador",Ecuador,-4.0001251,-79.2058116
2396574301,Hostal Red Las Orquídeas,,Ibarra,Ecuador,0.3418709,-78.1266269
2403805747,Santa Lucía,https://santaluciahotel.com/,Cuenca,Ecuador,-2.8978475,-79.0030011
2432502783,Cabañas Pino Lodge,,,Ecuador,-0.0555412,-78.7752
2448428618,La Siesta,,,Ecuador,-0.2513883,-79.164359
2454321389,El Carmelo,,,Ecuador,-0.0599016,-78.7751438
2469389361,Red Booby,,,Ecuador,-0.7455323,-90.3132003
2470823698,Turin Eco Suites,,,Ecuador,-0.6916495,-90.3148357
2498973388,Mama Rumi,,Guaranda,Ecuador,-1.5842564,-78.9975728
2512284184,El Quijote,https://www.hotelquijote.com/,Cuenca,Ecuador,-2.8969146,-79.0017956
2523627936,Apart Hotel America,,Santo Domingo,Ecuador,-0.2540145,-79.1659744
2528797687,Aleros Hotel,,,Ecuador,-2.8999035,-79.0042415
2573968854,El Monte,,,Ecuador,-0.0691829,-78.7619903
2573968855,Quinde Pungo,,,Ecuador,-0.0699377,-78.7602849
2574771089,Titopolis Suites B&B,,Samborondon,Ecuador,-2.1465032,-79.8694154
2583150969,Hotel Yanuncay,https://hotelyanuncay.com.ec/,,Ecuador,-2.8963344,-78.9995961
2596625580,La Floresta,,,Ecuador,-1.4000459,-78.4230706
2597600182,Cabañas Del Pescador,,,Ecuador,-2.8044616,-79.1577321
2608512802,Hotel Ajavi,,Ibarra,Ecuador,0.3481753,-78.1284601
2626402404,CotopaxiPungo finca-hotel,,,Ecuador,-0.4679971,-78.4316489
2630676027,Hostal El Colibri,,,Ecuador,-1.3990994,-78.4231244
2635855650,HOTEL TOÑITO,,,Ecuador,-0.6685927,-79.6107384
2635858886,HOTEL VALDIVIEZO,,,Ecuador,-0.6697138,-79.6104894
2635875482,HOTEL MOREIRA,,,Ecuador,-0.6706037,-79.6100179
2635879012,HOTEL OSTAIZA,,,Ecuador,-0.6693432,-79.610772
2647813129,hostal pasion de gavilanes,,,Ecuador,-1.2677674,-77.8898175
2647813134,Hostal Belen,,,Ecuador,-1.2657739,-77.8893806
2647813137,hosteria clarita,,,Ecuador,-1.2628196,-77.8884914
2658207338,Motel Martha Mendez,,,Ecuador,-3.2707925,-80.0018262
2658360668,Britney,,,Ecuador,-3.2641212,-79.9976412
2658397750,Hotel Marsella,,Machala,Ecuador,-3.256195,-79.962414
2658397793,Miramar,,,Ecuador,-3.266755,-79.9738926
2658397837,Torres,https://m.facebook.com/HostalTorres/,,Ecuador,-3.2536906,-79.968037
2658443332,Araujo,,,Ecuador,-3.2566508,-79.9566607
2666294511,Hosteria Quinlata,https://www.facebook.com/hosteriaquinlata/,,Ecuador,-1.3058867,-78.4996426
2700734418,Hacienda Manteles,,,Ecuador,-1.3146498,-78.4677236
2716244309,Hotel Brisas del Pacifico,http://www.pedernalesecuador.com,,Ecuador,0.0743363,-80.054506
2716244339,Hotel Mr. John,,,Ecuador,0.0682487,-80.0587803
2716244342,Hotel Arena,,,Ecuador,0.0688035,-80.0574938
2716244353,,,,Ecuador,0.0704565,-80.0505862
2716244400,,,,Ecuador,0.0711823,-80.0530045
2716244403,,,,Ecuador,0.0711876,-80.0523025
2716244851,Hotel Smay,,,Ecuador,0.0739428,-80.0538686
2716260682,Playa Cristal,http://playacristal.com.ec/,,Ecuador,0.1720823,-80.0321558
2768132787,Hotel Rio,https://hotelrioatacames.es.tl/,atacames,Ecuador,0.8713992,-79.8509833
2771097508,Dulcelina,,,Ecuador,-1.401938,-78.401057
2795242899,Hostal Kundalini,www.hostalkundalini.com.ec,Montanita,Ecuador,-1.8219673,-80.7556936
2816954077,Santa Lucía Forum,http://forumhotel.ec/,,Ecuador,-2.8954691,-79.0026858
2844282442,Morzua,,,Ecuador,-2.3071507,-78.1201107
2844290650,Rumah,,,Ecuador,-2.3041061,-78.1193734
2846283057,Hosteria el Mirador,,,Ecuador,-1.8004021,-79.0896321
2871638649,Los Canelos,,,Ecuador,-2.3064996,-78.1190169
2896363521,Hotel Marquez del Rio,,,Ecuador,-1.6424675,-78.6753599
2900268690,Casa Posada,,,Ecuador,-4.6291163,-79.4643319
2912175893,Hotel San Francisco,,,Ecuador,0.597751,-77.8322255
2925495117,Tunas y Cabras,,,Ecuador,0.4264391,-78.0543737
2925498408,Chuquitos,,,Ecuador,-0.9579545,-77.8611832
2937264983,Mogens Pod Hostel,http://www.mogenspodhostel.com,,Ecuador,-0.2000152,-78.4941895
2962640608,Hotel Oceanic,,,Ecuador,-1.5477766,-80.8103054
2962724686,Hotel Berdelmar,,,Ecuador,-0.7807733,-80.5169498
2962729557,Marco Rest y Hostal,,,Ecuador,-0.7809146,-80.5169639
2962746384,Hotel rest. Laurita,,,Ecuador,-0.7806978,-80.5174269
2971686985,"Hotel ""Amanecer del Valle""",,mACHACHI,Ecuador,-0.5131548,-78.5678997
2986883057,Inca Real,,,Ecuador,-2.8968232,-79.006712
2990330880,Residencial Anita,,,Ecuador,-3.4022786,-78.5815567
2998699226,Hotel Panamericano,,,Ecuador,-2.2036425,-78.8473536
2998700389,Hostal San Pedro,,,Ecuador,-2.2039041,-78.8477125
2998700474,Hotel Europa,,,Ecuador,-2.2041511,-78.8473488
3012552353,Hosteria El Encanto de Anita,,,Ecuador,-1.4399574,-78.2242964
3018935368,Hostal Mantaraya,,,Ecuador,-1.5718299,-80.8295316
3024975652,,,,Ecuador,-0.15012,-78.490445
3024976254,,,,Ecuador,-0.1501236,-78.4906095
3027544578,HOTEL EL DESCANSO DEL CHOFER,,,Ecuador,-0.5834155,-79.5061171
3028938006,Maria Isable,,Baños de Agua Santa,Ecuador,-1.3955271,-78.4207082
3047618834,Edén de Mindo,,,Ecuador,-0.0780442,-78.7342366
3070039775,Eco Hospedaje Isla del Pirata,,,Ecuador,-0.6508262,-90.4056273
3070041322,Hostal The Jungle,,,Ecuador,-0.955634,-90.9719269
3070041434,Tero Real,,,Ecuador,-0.9562631,-90.9645868
3070041568,Las Gardenias,,,Ecuador,-0.9560992,-90.9651687
3070042384,Iguana Crossing,,,Ecuador,-0.9561725,-90.9709756
3070042880,Gran Tortuga,,,Ecuador,-0.9555438,-90.9662022
3070045058,Hospedaje Sea Lions,,,Ecuador,-0.9560149,-90.9662163
3070612235,Hotel Apartamentos Occidentales,,,Ecuador,-0.1395461,-78.5014295
3077648223,Casa Mabell,,,Ecuador,-0.9010474,-89.6101325
3077651418,Hotel Galapagos Planet Kongeriket Norge,,,Ecuador,-0.9057178,-89.6129282
3077652066,Gran Hotel Chatham,,,Ecuador,-0.9050942,-89.6127886
3077652962,Hotel Mar Azul,,,Ecuador,-0.904528,-89.6121784
3077653659,Miconia Hotel & Restaurant,https://www.hotelmiconia.com/,,Ecuador,-0.900382,-89.610235
3077653660,Ocean Guesthouse,,,Ecuador,-0.9004213,-89.6086764
3077654082,Hostal Galapagos,,,Ecuador,-0.8989327,-89.609242
3077654083,Dory's House,,,Ecuador,-0.9007611,-89.6061302
3077654254,Blue Marlin Hotel,,,Ecuador,-0.9019561,-89.6096252
3077654562,Lucrecia Maria Bed & Breakfast,,,Ecuador,-0.9081946,-89.5587999
3091330600,Hotel Samay,,,Ecuador,-0.4649416,-77.8890615
3099508816,Cabaña Los Higuerones,,,Ecuador,-4.1149391,-78.9664533
3103124038,Las Terrazas de Dana Boutique Lodge & Spa,https://www.lasterrazasdedana.com,,Ecuador,-0.0625201,-78.7695445
3107953844,Copalinga,,,Ecuador,-4.090816,-78.9585341
3124684842,Abrazo del Árbol,,,Ecuador,-0.0112066,-78.8095224
3161643528,La Terraza,,,Ecuador,0.846392,-79.9259767
3162208835,Guango Lodge,,,Ecuador,-0.3786414,-78.0739962
3162366401,Jamu Lodge,https://ecuadorrainforestlodge.com/,Cuyabeno Wildlife Reserve,Ecuador,-0.0348527,-76.1643394
3165792586,La Isla,https://www.hosterialaisla.com/,,Ecuador,0.1090059,-79.2280906
3166076471,Quinta Galindo Hotel,,San Felipe de Oña,Ecuador,-3.4695244,-79.1594996
3199596305,Hotel Spondylus de San Jose,www.hotel-spondylus.com,San Jose,Ecuador,-1.7636684,-80.7672676
3215039438,,,,Ecuador,-1.5921323,-78.7024501
3227456887,Madre Tierra,https://www.madretierra.com.ec/,,Ecuador,-4.24652,-79.2260342
3259170061,hosteria arboja,,,Ecuador,-0.0459055,-78.2963321
3264552086,Hotel Nacional,,,Ecuador,-0.9279155,-78.6188494
3275766941,Hostal Celica,,,Ecuador,-4.1040259,-79.9561138
3275766942,Hotel Amazonas,,,Ecuador,-4.1057398,-79.955431
3275766943,Hotel Pucará,,,Ecuador,-4.103345,-79.9554402
3275766944,Reina de El Cisne,,,Ecuador,-4.1029954,-79.955662
3277387362,Hotel Celestial,,,Ecuador,-4.1028995,-79.9562511
3320235242,Su Majestad,,La Troncal,Ecuador,-2.4228056,-79.3441503
3329963671,Flor de los Andes,,,Ecuador,0.8131115,-77.7165322
3329967298,Palacio Imperial,,,Ecuador,0.8115844,-77.7184972
3342013887,Hostal Brisa Marina,http://www.lageoguia.org/hostal-brisa-marina-puerto-lopez-manabi-ecuador/,,Ecuador,-1.5572759,-80.812227
3344967019,Hotel El Gran Jeshua,,,Ecuador,-2.2309235,-80.8543281
3348655213,Rumipamba de las rosas,,,Ecuador,-1.0375089,-78.5909714
3350867093,Hostería Rose Cottage,https://www.rosecottageecuador.com/,Otavalo,Ecuador,0.203863,-78.28644
3355330747,Victor Hugo,https://www.victorhugohotel.com.ec/,,Ecuador,-1.5528658,-80.8111632
3377153075,Jimmy,,,Ecuador,-0.9326135,-78.6250577
3379747639,,,,Ecuador,-0.8752742,-80.5422418
3430985793,Hostería Gabeal,,,Ecuador,0.5068438,-80.0211362
3485410508,France INN Hotel,https://www.guiadepastaza.com/Proveedor/ver/hotel-france-inn,,Ecuador,-1.487173,-77.9961656
3487820149,Hotel El Indio Inn,,,Ecuador,0.2267512,-78.2627254
3503985247,Casa Blanca,,,Ecuador,1.0965058,-79.1632256
3503985248,Maria José,,,Ecuador,1.0952524,-79.1636126
3551538486,By pass Quito-Quevedo,,,Ecuador,-0.2752654,-79.2015313
3551566179,D Orland,,,Ecuador,-0.2717923,-79.1975388
3566200859,Mindo Loma Bird Lodge,https://mindoloma.com,,Ecuador,-0.0120069,-78.741389
3566761938,Hotel San Jacinto,,,Ecuador,-0.7760335,-80.5169219
3569290895,Hostal Elvita,,,Ecuador,-1.3960604,-78.4244672
3581837189,Millay Lodge,,,Ecuador,-0.2052055,-75.9253025
3581838038,Hostal Fragata,,,Ecuador,-1.5591859,-80.8126719
3583285607,Hotel Rincon Alemán Riobamba,,Riobamba,Ecuador,-1.6459884,-78.6686477
3593608845,Margarita 1,,,Ecuador,-0.2169694,-78.5030508
3597491123,Centro de Formación Cristiana Padre Jesús Tamayo,,,Ecuador,-1.3945951,-78.4299359
3611229520,Hotel Carrion,,"Loja, Ecuador",Ecuador,-3.9954724,-79.2046556
3625603063,Malecon Inn,,,Ecuador,-2.196404,-79.8816781
3633607993,Hotel Air Suites,,,Ecuador,-2.150973,-79.887636
3635955584,Hostal Nomada,,,Ecuador,-1.3960486,-78.4235726
3645248644,Hotel D'Mario,https://www.hoteldmario.com/,,Ecuador,0.0824278,-76.8806564
3648477370,Rio Hotel,http://www.riohotelecuador.com,Riobamba,Ecuador,-1.6709962,-78.652074
3656083702,Hostal Canoamar,https://www.canoamar.com/,,Ecuador,-0.4648876,-80.4560006
3656083703,Mitad del mundo surf,,,Ecuador,-0.4645978,-80.4559088
3658366571,Hotel Quinta San Gregorio QSG,http://www.quintasangregorio.com/inicio.php?lang=es&opc=inicio,esmeraldas,Ecuador,0.9122097,-79.6871783
3658423082,DC Suites,,,Ecuador,-2.1528001,-79.8869019
3658423083,Maxima,,,Ecuador,-1.5580943,-80.8105338
3659244353,Hostal El Cisne,,,Ecuador,0.9006231,-79.707026
3659252984,Hostería La Pradera,,,Ecuador,0.9029642,-79.7033775
3665106568,Abu dabi,,,Ecuador,-2.9124431,-78.9934872
3665112644,Las Acacias,,,Ecuador,-2.9120922,-78.9955388
3666510823,Hostal Anita,,,Ecuador,-1.0461573,-80.6575921
3678085790,Hotel Chunchi Imperial,www.hotelchunchi.com,,Ecuador,-2.2904252,-78.9185896
3681606267,Hostal Olas del Mar,,,Ecuador,-1.797345,-80.7587759
3692609716,Quinta Loren,,,Ecuador,-1.2484311,-78.6465941
3700263492,Huella Verde rainforest Lodge,https://www.huella-verde.org/,,Ecuador,-1.6064933,-77.7536469
3700527568,Hostería La Roulotte Mindo,https://hosterialaroulottemindo.com/,Mindo,Ecuador,-0.0636696,-78.7652999
3703696559,Hotel Florida,,,Ecuador,-1.2492871,-78.6375738
3710082282,Rocio,,,Ecuador,-1.666952,-78.6572467
3710096938,Caracas Suite,,,Ecuador,-1.6629738,-78.6625593
3710096939,Danubio,,,Ecuador,-1.6633672,-78.6627997
3710096941,Royalty,,,Ecuador,-1.6555571,-78.6653514
3718902070,Kuna,,,Ecuador,-2.8847668,-79.0018454
3722226921,HOSTERÍA 3 RÍOS JUNGLE-LODGE,http://www.guiadenapo.com/Proveedor/ver/suchipakari-jungle-lodge,,Ecuador,-1.0264209,-77.598815
3733886638,hotel paris,,,Ecuador,-1.2370504,-78.6145296
3734673162,Hostal Araza,,Tena,Ecuador,-0.992659,-77.8135893
3734781574,Cristian Palace,,,Ecuador,-0.9913026,-77.81703
3741544223,Balcones de Mompiche,http://www.losbalconesdemompiche.com,,Ecuador,0.5056273,-80.0222819
3744146877,Liana Lodge,http://www.selvaviva.ec/liana-lodge,,Ecuador,-1.0559366,-77.5248741
3748110439,Stubel Suites & Café,https://www.stubel-suites.com/,Quito,Ecuador,-0.2009509,-78.4791383
3748124236,El hogar de Chocolate,,Baños de Agua Santa,Ecuador,-1.3964619,-78.4074085
3748137439,Casa del Águila,http://www.hotelcasadelaguila.com/,"Cuenca, EC",Ecuador,-2.8965394,-79.0094926
3748176409,La Casona de la Ronda,https://lacasonadelaronda.com/,Quito,Ecuador,-0.2250312,-78.5135307
3758116141,Napolitano Apart Hotel,,Baños de Agua Santa,Ecuador,-1.3939217,-78.4193813
3758203233,Hotel,,,Ecuador,-1.2462366,-78.6200108
3761996915,Mansion Santa Isabela,https://mansionsantaisabella.com/,Riobamba,Ecuador,-1.668837,-78.6520856
3778785398,Hosteria Caña de Azucar,,,Ecuador,-1.5135503,-78.0082085
3781514158,Black Sheep Inn,,,Ecuador,-0.7969103,-78.917112
3791497738,Casa 1881,,,Ecuador,-1.6733363,-78.6518249
3808616594,MONTEZUMA,,,Ecuador,-1.8260665,-80.7530875
3809468952,El Velero,,,Ecuador,-0.8754895,-80.5401645
3822095757,Hotel Residencial Victoria,hotelresidenciavictoria@gmail.com,Lago Agrio,Ecuador,0.0817779,-76.8816645
3845784468,Casa Augustus,,Quito,Ecuador,-0.1599172,-78.4734065
3863891287,Hostal Alexander,,,Ecuador,-1.7068119,-79.0414979
3863904865,"Hostal ""Imperial""",,,Ecuador,-1.7088159,-79.041445
3863904884,,,,Ecuador,-1.7088012,-79.0415487
3868337260,La Posada de Andrés,,,Ecuador,-2.3326688,-79.4302185
3872333366,Hotel,,,Ecuador,-2.4760257,-79.2719805
3874856719,El Gran Hotel,,,Ecuador,-1.9433733,-79.066242
3874856720,Hotel la Unión,,,Ecuador,-1.9433836,-79.0657372
3877476265,Hostal D'Rio,,Cariamanga,Ecuador,-4.3261722,-79.5552091
3886656610,BULU BULU,,,Ecuador,-2.3328556,-79.4008329
3889670180,Hosteria Luis Antonio,http://www.ecoturismoluisantonio.com/,,Ecuador,-2.2665893,-79.0929018
3900562975,Hostal ZAMORANO,,Quito,Ecuador,-0.2613991,-78.5479315
3905131293,Hotel Gahona,,,Ecuador,-1.4904907,-78.0051892
3915428558,Hostería Oro Azul,,,Ecuador,0.287705,-78.2654
3919853027,Hotel La Colina,,,Ecuador,-1.6503955,-78.6655419
3925831063,Hotel Imperial,,Arenillas,Ecuador,-3.5538265,-80.0625586
3931554346,Guambo Real,,,Ecuador,-4.5821039,-79.4269898
3931571968,,,,Ecuador,-4.5813914,-79.427187
3939818279,Hostería Rodas,,,Ecuador,-2.9205218,-79.0666501
3954316513,Hotel,,,Ecuador,-1.2460256,-78.6225544
3966884002,Hotel Royal,,,Ecuador,-1.2373935,-78.622469
3969010859,hotel,,,Ecuador,-1.2381993,-78.6231134
3969010864,,,,Ecuador,-1.2380076,-78.622935
3972392475,hotel,,,Ecuador,-1.2388463,-78.6237918
3972405329,El Conquistador,,,Ecuador,-4.3810308,-79.9433294
3972405335,Hostal Colina,,,Ecuador,-4.3818952,-79.9454895
3972405336,Hostal del Sur,,,Ecuador,-4.3817061,-79.942795
3972405338,Los Arrozales,,,Ecuador,-4.3831674,-79.9441528
3972405344,Residencial Paraíso,,,Ecuador,-4.38182,-79.9427926
3972405346,Santigyn,,,Ecuador,-4.3810628,-79.9433634
3977282385,hotel punta del mar,,,Ecuador,-2.2213621,-80.9105125
3978078731,hotel,,,Ecuador,-1.2409043,-78.6262728
3983121410,Hotel,http://hotelseñorial.com.ec,,Ecuador,-1.2439088,-78.6294142
3988421115,Amalur,,Canoa,Ecuador,-0.462845,-80.455398
3995722019,Apart Humboldt,,Riobamba,Ecuador,-1.6627746,-78.6638169
4003051851,Hosteria Señor de los Caballos,,,Ecuador,-1.6570691,-79.7869505
4004309313,Canoa Beach Hotel,http://canoabeachhotel.net/,,Ecuador,-0.4738416,-80.453478
4004461616,Sanctuary Puerto Cayo Lodge,,,Ecuador,-1.3120045,-80.7610519
4012651126,Yachana Amazon Eco Lodge,,,Ecuador,-0.8441687,-77.2326512
4012691871,Gran Hotel del Coca,http://www.granhoteldelcoca.com/,,Ecuador,-0.4684216,-76.9801087
4013560991,Paseo Real,,,Ecuador,-2.9024184,-78.9864319
4013560992,Casa de las Rosas,,,Ecuador,-2.8946303,-78.9976499
4013560993,Casa Lloret Bed & Breakfast,,,Ecuador,-2.9142551,-79.0137344
4013560994,Complejo Deportivo Gutun,,,Ecuador,-2.914334,-79.0227953
4013561006,Manhattan,,,Ecuador,-2.8952394,-78.996836
4013561008,Hostal Medio Ejido,,,Ecuador,-2.9031046,-79.0371862
4013561011,Hostal Pachamama,,,Ecuador,-2.9046469,-78.9995747
4013561012,Hostal Paredes,,,Ecuador,-2.8940254,-79.0132822
4013561014,Hostal El Rio,,,Ecuador,-2.8992736,-79.0084604
4013561019,El Cisne,,,Ecuador,-2.8981204,-79.0257836
4013561020,El Portal Español,,,Ecuador,-2.8950017,-78.9977091
4013561021,Manantial,,,Ecuador,-2.8946075,-78.994922
4013561022,San Antonio,,,Ecuador,-2.8904025,-79.0017809
4013561023,San Carlos,,,Ecuador,-2.8936298,-78.9922261
4013561024,San José,,,Ecuador,-2.8921937,-78.9940993
4013561027,Pension Río Brabo,,,Ecuador,-2.8967534,-78.9887872
4013561030,Zambranos Hostal,,,Ecuador,-2.8915779,-79.01724
4013561033,hostal fuego,,,Ecuador,-2.8963085,-78.9953672
4013561036,Nass hoteles,,,Ecuador,-2.905184,-79.0048325
4023887143,Hotel,,,Ecuador,-0.2547799,-79.1719921
4052043107,Hotel Bolívar,,,Ecuador,-3.2630878,-79.9568616
4053467337,Galapagos Planet,,,Ecuador,-0.9570909,-90.9640953
4055029218,Chalet Galaqagos,,,Ecuador,-0.7512297,-90.3101244
4057535986,Imperial,,,Ecuador,-0.238334,-79.1732575
4057585490,Continental,,,Ecuador,-0.2378483,-79.1740002
4057585495,Hotel Jimmy,,,Ecuador,-0.2430342,-79.1715344
4057585557,Japon,,,Ecuador,-0.2388902,-79.1752799
4060284389,Hotel-restaurant La Habana Sur,,,Ecuador,-3.480478,-80.238922
4068565237,Soleil,,,Ecuador,-0.9578108,-90.9640089
4070127372,Colony Hotel,,,Ecuador,-1.2362437,-78.6193734
4070127376,,,,Ecuador,-1.2364011,-78.6197556
4070139350,hotel,,,Ecuador,-1.2363888,-78.6192672
4070890876,Quilla Pacari,,,Ecuador,-1.6169757,-78.7633618
4072152333,Hotel,,,Ecuador,-1.2373704,-78.6213025
4073484654,hotel,,,Ecuador,-1.2395513,-78.623757
4073492819,hotel,,,Ecuador,-1.2418904,-78.6242098
4073607721,residencial,,,Ecuador,-1.243971,-78.6268729
4073607723,residencial,,,Ecuador,-1.2440541,-78.6269011
4073607730,residencial,,,Ecuador,-1.2441332,-78.6268206
4081669727,Casa Spondylus,,Mirador San Jose,Ecuador,-1.2366903,-80.8122605
4087280064,hotel,,,Ecuador,-1.2452097,-78.6282668
4088692543,hotel,,,Ecuador,-1.2375264,-78.619439
4088906415,Chrsitian Resort,,,Ecuador,-1.0371388,-77.7967628
4091468066,Hôtel El Refugio,,,Ecuador,-0.466444,-78.5853609
4100647002,Berlín Eco Farm & Hostel,www.berlinecuador.com,,Ecuador,-1.3197294,-80.5131999
4103471317,Hôtel Villa 97,https://villa97.com.ec/,,Ecuador,-2.1545512,-79.888655
4103541791,FORTALEZA,,,Ecuador,0.0056815,-79.3979242
4103901293,Hotel Milán,,,Ecuador,-2.8986216,-79.0060635
4106083589,Big Mum Homestay,,,Ecuador,-0.2183459,-78.5095001
4106712289,La cascada de la vida,,,Ecuador,0.0634138,-78.682031
4108855389,Hotel Mar Azul,,,Ecuador,-0.9436518,-80.7330573
4108925294,"Hosteria Club ""La Loma""",,,Ecuador,-3.2536635,-79.2905088
4110285691,Hotel Cumandá,,,Ecuador,-3.2577588,-79.955926
4110938790,marysol,,,Ecuador,-0.7464881,-90.3129117
4111697042,H. Palmar del Rio,,,Ecuador,-0.9139134,-77.810353
4115754491,Hotel San Carlos,,,Ecuador,-0.8385528,-78.6660085
4119699291,HOTEL LA HERRADURA,,,Ecuador,-0.5974099,-80.4250499
4119809091,grahis hotel,,,Ecuador,-3.2626135,-79.9530672
4120114389,Hotel La Herradura,https://www.laherraduratonsupa.com/,,Ecuador,0.8873853,-79.8188894
4124036590,Hotel San Raphael,http://www.amarillasinternet.com/ec/puyo/hoteles_puyo_hostales_hospedajes_habitaciones_econ%C3%B3micas/_hotel_san_raphael__el_puyo.html,,Ecuador,-1.4886589,-78.0047592
4127132793,Hotel Residencial Gran Plaza,,,Ecuador,-3.2583315,-79.9574144
4128734896,Hotel Lastmar,,,Ecuador,0.0693466,-80.0580191
4130491190,Andino,,,Ecuador,-0.2039051,-78.4871927
4133716489,,,,Ecuador,-0.978402,-80.6751896
4138848429,,,,Ecuador,-1.0450274,-80.4770031
4138848526,HOTEL,,,Ecuador,-1.0452495,-80.4765511
4138848527,Hotel,,,Ecuador,-1.0452318,-80.4763334
4141432725,Hotel Perla verde,,Esmeraldas,Ecuador,0.9653629,-79.6530657
4141529995,DORADO,https://m.facebook.com/Hotel-Dorado-Sto-Domingo-539312996108069/,,Ecuador,-0.2388891,-79.1744272
4141561089,DORADO,https://m.facebook.com/Hotel-Dorado-Sto-Domingo-539312996108069/,,Ecuador,-0.2389472,-79.174392
4141664469,Cavalo de Mar,,,Ecuador,-0.1221019,-80.215068
4142681292,Hotel San Andres,,,Ecuador,-1.59122,-78.7022901
4148044166,Casa Yaruqui Hospedaje,,Yaruquí,Ecuador,-0.1629908,-78.318413
4150273089,Hotel Carvallo,https://www.hotelcarvallo.com.ec/,,Ecuador,-2.8955822,-79.0050167
4156699990,Lava House,,,Ecuador,-0.7417783,-90.3143933
4156700289,The Galapagos Pearl,,,Ecuador,-0.7414596,-90.3113975
4157682492,Riverside,,,Ecuador,-1.0144978,-79.4646443
4159773894,,,,Ecuador,-1.8233586,-80.7532704
4161866289,,,,Ecuador,-3.0838239,-79.0127886
4162260447,Los Sueños del Mar,,,Ecuador,-1.3232948,-80.7532508
4165576194,"""HOSPEDAJE""Green House Araque Inn",,OTAVALO,Ecuador,0.2068112,-78.1979964
4166543099,Playa Almendro Resort,,Tonsupa,Ecuador,0.8932738,-79.8107995
4168437490,Oro Azul,,,Ecuador,-2.6290524,-80.4011803
4168437692,Hotel Doña Esther,https://otavalohotel.com/,Otavalo,Ecuador,0.2256583,-78.2630452
4170940573,Hostal Klondike,,Cayambe,Ecuador,0.0397589,-78.1418804
4172952490,Hotel Marinero Inn,,,Ecuador,-0.5811513,-80.4133655
4172961589,El Velero,,,Ecuador,-0.591237,-80.4090797
4175011490,Land of the Sun,https://landofthesunhotel.com/,,Ecuador,0.3004417,-78.2653766
4176421289,Vulcano Green,,,Ecuador,-1.5648135,-78.5328238
4177458699,hostal alvanos,,,Ecuador,-2.895611,-78.9957075
4178068336,Hotel Monterrey,,,Ecuador,-1.664433,-78.6631172
4183753745,Livingstone,,,Ecuador,-2.1580414,-79.892962
4186765489,Janet,,,Ecuador,-0.9564743,-90.9691948
4190914989,Hostal LA ORQUÍDEA,,,Ecuador,-2.3031081,-78.1171432
4190992089,Hotel Sans,,,Ecuador,0.3283386,-79.4724178
4191381595,hotel ibarra,,,Ecuador,0.345499,-78.1206641
4193757198,C&M,,,Ecuador,-0.9290232,-78.614652
4196347289,"Hotel Chifa ""JADE""",,,Ecuador,-1.0278784,-79.4464244
4203507592,Hotel Montecarlo,,,Ecuador,-2.8977511,-79.0227964
4203530989,Hostal pakanari wasi,,,Ecuador,-2.8977739,-79.0227121
4207362190,Mirador de Bellavista,,Quito,Ecuador,-0.1886367,-78.4761033
4207388625,hotel 593,,,Ecuador,-0.171071,-78.4948544
4209376473,Tintorera,,,Ecuador,-0.9535455,-90.9645246
4209992493,La Roca Hotel and Restaurant,,,Ecuador,-1.6788704,-80.8123046
4212900400,Bromelias PISCINA,,,Ecuador,-0.9186261,-77.8128827
4212999192,Joya de la Selva,http://www.hoteljoyadelaselva.com.ec,,Ecuador,-0.9889834,-77.8163245
4215311401,Hostería Cananvalle,,,Ecuador,0.3577703,-78.1500877
4215704692,Azuluna Ecolodge,www.azuluna-ecuador.com,,Ecuador,-1.6437307,-80.8240142
4216325827,Mirador Oro Verde,,,Ecuador,-0.9618211,-78.8989532
4216563989,,,,Ecuador,-4.3356197,-79.9219289
4219535660,Hotel Florida,,,Ecuador,-0.3003224,-78.5593007
4220719189,HOTEL LUXURY,,,Ecuador,-1.0395782,-79.4753291
4220719290,HOTEL SAN ANDRES,,,Ecuador,-1.0282407,-79.467915
4220739189,HOTEL INGLES,,,Ecuador,-1.0294855,-79.4684912
4220761891,HOTEL EJECUTIVO,,,Ecuador,-1.0232961,-79.4661897
4221666619,Cabañas Los Bohios,,,Ecuador,0.8709159,-79.8516737
4222146997,HOSTAL JONATHAN,,,Ecuador,-1.0290883,-79.4693468
4230862889,Hostal La Merced,,,Ecuador,-2.9014863,-79.0023204
4231236404,Posada del Maple,,,Ecuador,-0.2033297,-78.488658
4233923637,Casa de Jeimy,,,Ecuador,-0.9040584,-89.6104747
4235750494,Hosteria Quinta San Juan,,,Ecuador,-1.0469904,-80.4784765
4239948799,GladysMar,,,Ecuador,-0.9560178,-90.9641238
4242846354,,,,Ecuador,-1.0744813,-80.9030313
4243940990,residencial popular ,,,Ecuador,-1.0437916,-79.6383999
4247731889,Río Napo,,,Ecuador,-0.4706587,-76.9857318
4249096489,Hotel Las Mercedes Airport-Quito,,,Ecuador,-0.1839309,-78.3481622
4249644589,Mansión Alcázar,https://www.mansionalcazar.com/,,Ecuador,-2.8960052,-79.0082895
4249850589,Santa Fe Hostal,,,Ecuador,0.2281164,-78.263442
4251098291,Aldea Real Eco Resort,,,Ecuador,-1.3943652,-78.4053263
4253727989,Hotel Guayaquil,,,Ecuador,-0.273344,-79.4635565
4256767726,Hotel Majestic,,,Ecuador,-0.1987484,-78.498063
4257989589,hotel monte carlo,,,Ecuador,-2.1449127,-79.8875576
4258768660,Hostal Vuelve al Paraíso,,Quito,Ecuador,-0.2423203,-78.5182091
4260999395,"Hotel ""El Rey""",,,Ecuador,0.0227917,-78.8946928
4269788903,Hotel Ali Samaylla,,,Ecuador,0.2306042,-78.2620321
4270152564,Hotel Mercurio,,Quito,Ecuador,-0.2019277,-78.4948033
4273726332,Hotel Ballyz,,Quito,Ecuador,-0.2365983,-78.5277041
4273954042,Hotel Wampushkar,,,Ecuador,-4.0662653,-78.9571403
4274513622,LOS PONCHOS,,Otavalo,Ecuador,0.2303038,-78.2612084
4279158481,Hotel Caracas,,,Ecuador,-0.4728553,-76.9840826
4279159608,Hotel Orellana,,,Ecuador,-0.4664511,-76.9891604
4279160508,Hotel Yasuní,,,Ecuador,-0.4696406,-76.9857203
4282510858,,,,Ecuador,-1.6710008,-78.6697244
4284080614,Hotel Sonesta Guayaquil,,Guayaquil,Ecuador,-2.1557583,-79.8904564
4285636568,Flavio Alfarense,,,Ecuador,-0.4156167,-78.8000233
4286657089,Mundial City,,,Ecuador,-2.1526878,-79.8879606
4291407989,MACONDO HOSTAL,,,Ecuador,-1.8237769,-80.7531345
4298894290,Ecuablue,https://ecuablue.com/,,Ecuador,-0.9769539,-80.8397971
4300107090,Indiyana,,,Ecuador,-0.988508,-77.8151329
4300127091,D'Angelo,,,Ecuador,-0.9911787,-77.8176424
4300127092,Sirenis Amazonia,,,Ecuador,-0.9885684,-77.8147981
4300171089,Pumarosa,,,Ecuador,-0.9979895,-77.8125576
4301236189,Hotel Cordillera,,,Ecuador,-2.7370814,-78.8482637
4302483589,Hostal Residencial Las Brisas,,,Ecuador,-1.8220854,-80.7485148
4302526592,San Carlos,,,Ecuador,-0.2267804,-78.512813
4306442589,El Portón del Guabo Hosteria y SPA,,,Ecuador,-2.8191904,-78.9635387
4306832090,Hôtel Cayambe,,,Ecuador,0.0408284,-78.1412387
4307706789,Hosteria Rincón de Puembo,,,Ecuador,-0.1738161,-78.3604773
4308043296,Hospedaje ,,,Ecuador,0.4627806,-78.012394
4308536603,Hotel David Alejandro,,,Ecuador,-0.2068325,-78.5011557
4310145095,Residencial montufar,,,Ecuador,0.5978905,-77.8350103
4311985776,New York,,,Ecuador,-2.4245101,-79.3373204
4315671426,Hostal Girasol,,,Ecuador,-0.3464836,-78.5565156
4316436991,"Hotel ""La Costeñita""",,,Ecuador,-0.3382935,-77.8085293
4317482089,Hostal Tungurahua,http://www.balcontungurahua.com,,Ecuador,-1.396251,-78.4296342
4317992691,Hospedaje Jennifer,,,Ecuador,-0.9566194,-90.9643058
4318695289,Hostal Achik Wasi,https://www.turismosaraguro.com/,Saraguro,Ecuador,-3.6241632,-79.2422477
4318876889,Hot Spots Lodge,,,Ecuador,-0.0529644,-76.172841
4318938094,Secoya,,,Ecuador,0.0827086,-76.8809636
4319014789,Hostal josue,,,Ecuador,-3.4038041,-78.581517
4320351789,Hotel la Aldea,http://www.aldeahotel.com/hotel.html,,Ecuador,0.8696907,-79.8539805
4324618789,hostal residencial Oriente,,,Ecuador,-0.2121404,-78.5037442
4325051090,Brisas del Shiripuno,,,Ecuador,-1.0072319,-76.9448886
4325715507,hostal casa del rio,http://www.hostalcasadelrio.com,,Ecuador,-2.9010437,-79.0067013
4327204389,Hotel Marveck,,,Ecuador,-3.8748351,-79.6446865
4327913490,Atacames Inn,,,Ecuador,0.8711773,-79.8534518
4327978983,Prestig e,,,Ecuador,-0.9443777,-80.7410352
4330168896,Casa del Suizo,,,Ecuador,-1.0607764,-77.5466808
4331310325,El refugio D' Grace,,,Ecuador,-0.9431861,-79.241962
4331425889,Hotel Mulata del Pacifico,https://www.facebook.com/Hotel-Mulata-del-Pac%C3%ADfico-146880062393800/?fref=ts,,Ecuador,0.8687428,-79.8549282
4331825990,Hotel Emperatriz,,,Ecuador,0.0477942,-78.2234024
4333864808,Airton,,,Ecuador,-0.3102725,-78.5459079
4336191290,Hotel Windham,,,Ecuador,-2.1792452,-79.8754461
4336345992,Cabañas Osho,http://oshoecuador.com/,,Ecuador,0.243158,-78.772763
4344285994,9 de octubre,,,Ecuador,-2.1905585,-79.88489
4345139490,Las Valentinas,,,Ecuador,-2.6734885,-80.3634453
4346666592,Azul,,,Ecuador,-1.33299,-78.5546603
4348066993,Gala Inn.,,,Ecuador,-1.3996479,-78.4210849
4348092589,Catleya,,,Ecuador,-3.6770432,-79.6878337
4348145228,Hostería Vista Hermosa,,Guano,Ecuador,-1.6001458,-78.6472416
4348455490,Finca Punta Ayampe,,,Ecuador,-1.6838298,-80.8089106
4349295891,San Pedro Pelileo,,,Ecuador,-1.3303847,-78.5426881
4349944191,Cattan,,,Ecuador,-2.6358422,-80.3933972
4350349290,Sass,,,Ecuador,-2.6444678,-80.3777456
4351175089,Santa Marta,,,Ecuador,-3.2396202,-79.2811187
4351936892,Hostería San Francisco,https://www.hosteriasanfrancisco.com/,,Ecuador,0.4534729,-78.215693
4353379289,Hotel Bocana,,,Ecuador,0.3669628,-80.0361314
4353392189,Hosteria Casa Grande,,,Ecuador,-2.8701259,-78.7731561
4358054363,Ficoa Real Suites,,,Ecuador,-1.2373028,-78.6326221
4360885890,Mindo Ananaw,http://www.mindobooking.com,,Ecuador,-0.0558345,-78.778731
4360904390,Hotel Sun Blue,,,Ecuador,-2.1401294,-80.7763655
4362276190,Hostal Puerto Cayo,,,Ecuador,-1.3467598,-80.7403921
4367564890,,,,Ecuador,-0.9383723,-78.6018724
4368086561,Hostal San Martín,,,Ecuador,-1.3970761,-78.4364611
4368864090,Hotel María,,,Ecuador,-1.4998519,-78.0229171
4373201289,Hotel Viguz,,,Ecuador,-2.9230086,-78.7751625
4376044090,Hostal Bristol,,,Ecuador,-2.4271528,-79.3385095
4376045596,Hotel Torre Fuerte,,,Ecuador,0.0854283,-76.8818786
4377517496,Finlandia,,,Ecuador,-0.1797261,-78.4807458
4380810590,Hotel Apartamento,,,Ecuador,-0.185986,-78.4993029
4381666889,Swiss Hotel,,,Ecuador,-0.2060845,-78.4849215
4382138799,Ing. Hugo Mejia,,,Ecuador,-3.26904,-79.9679976
4384476797,Saransig Killasamana,,,Ecuador,0.2353994,-78.273549
4384660389,,,,Ecuador,-4.0017431,-79.1996812
4384753089,Residencial La Peña,,,Ecuador,-3.9907193,-79.2054688
4385510899,Turismo Internacional,,,Ecuador,0.3567757,-78.1232083
4385914973,Hotel Club del Oriente,,Archidona,Ecuador,-0.8862027,-77.7948465
4386637349,Hosteria Kawa,,,Ecuador,-2.3785418,-77.5089822
4386637352,Hotel JeaMia,,,Ecuador,-2.3873703,-77.5039103
4386764293,Hotel Royal Palace,,,Ecuador,-0.4442816,-77.0094244
4387801310,Guacamayo Ecolodge,https://www.guacamayoecolodge.com/,,Ecuador,-0.0311822,-76.1652259
4387897895,Tapir Lodge,https://tapirlodge.com/,,Ecuador,-0.038127,-76.1607662
4387929989,Green Forest Ecolodge,https://www.greenforestlodge.com/,,Ecuador,-0.0467734,-76.1648676
4388591613,Hostal la Aldea,,Taisha,Ecuador,-2.3790372,-77.5083428
4391137490,,,,Ecuador,0.0074968,-79.3975377
4391859391,Hostería La Góndola,https://lagondolaecuador.com/,,Ecuador,-1.831575,-80.7518374
4393503063,Dasoft,,,Ecuador,-2.2070917,-79.1359964
4396972289,Hotel San Luis,,"Zumba, Zamora Chinchipe",Ecuador,-4.8638047,-79.132088
4397659392,HOSTAL COLIBRÍ 2,,,Ecuador,-1.3948688,-78.4166558
4399070078,Hotel Los Espejos,,Guaranda,Ecuador,-1.5913933,-79.0001175
4399108806,Hotel Ejecutivo,,Guaranda,Ecuador,-1.5912649,-78.9997896
4399116756,Hotel Oasis,,Guaranda,Ecuador,-1.5909955,-78.9985728
4400170389,Los Ríos Hotel,,,Ecuador,-1.3967219,-78.4220065
4400214942,Hotel Casablanca Salinas,http://www.hotelcasablancasalinas.com,Salinas,Ecuador,-2.2037191,-80.9753398
4400275769,Hotel Tambo del Libertador,,Guaranda,Ecuador,-1.5847751,-78.9980452
4407080793,Cabañas del Valle Hosteria ,,,Ecuador,-2.3209274,-78.1334484
4418291595,María Gracia,,,Ecuador,-0.1200847,-78.4849142
4418387389,,,,Ecuador,0.8977622,-79.8040533
4419739090,hostal carapungo,,,Ecuador,-0.1082282,-78.4554838
4421272689,hotel marita,,,Ecuador,1.0696826,-78.908376
4425455090,Hotel Santa Teresa,,,Ecuador,-3.0612373,-79.7471087
4425473797,Sun Palace,,,Ecuador,0.8684652,-79.8577535
4426824141,Vemeli,,,Ecuador,-1.2365055,-78.6159958
4426867091,Hotel Bocana,,,Ecuador,0.0666436,-80.0594594
4427235589,Costa Marina,,,Ecuador,0.8886427,-79.8104999
4429186749,La Tortuga Suites,,,Ecuador,-1.6798568,-80.8112123
4433456890,HOTEL VILLA COLONIAL,,,Ecuador,-4.2190195,-79.2577165
4436335791,Hotel Gomar,,,Ecuador,-4.0681167,-78.9547265
4438393699,Casa Helbling,https://casahelbling.de/,,Ecuador,-0.2061126,-78.4916609
4439976392,Hostal Lucía,,,Ecuador,-3.9878214,-79.2055621
4448576889,Las Cascadas,,,Ecuador,0.023176,-78.8955859
4450264893,"Apart Suite, Apart Guayaquil",https://hotelesenguayaquilecuador.com/,,Ecuador,-2.1548195,-79.886641
4454136791,办公室附近hotel,,,Ecuador,-0.2727056,-79.4646926
4455708594,Kundalini Beach Hotel,www.hostalkundalini.com.ec,,Ecuador,-1.824316,-80.7541377
4455817590,Hotel Sur Oriente,,,Ecuador,-4.5509713,-79.1318823
4457269189,Imbabura Hostal SS,https://hostalssimbabura.wixsite.com/ibarra,,Ecuador,0.3444458,-78.1242242
4458614512,,,,Ecuador,-2.9976069,-79.7915022
4458670390,HOSTAL OSITO,,,Ecuador,-0.3431866,-78.5557396
4459828889,Hotel Puerta de Oro,,,Ecuador,-0.272797,-79.4627632
4462174789,Hotel Andrade,,El Carmen,Ecuador,-0.2725994,-79.4645509
4462664535,Alexada,,,Ecuador,-1.5026188,-78.0078546
4464469289,Posada del caminante II,,,Ecuador,-0.9527449,-90.96615
4466175499,,,,Ecuador,0.0840245,-76.8834863
4466387615,LAS PALMERAS INN,,,Ecuador,0.2363447,-78.2834626
4466636020,Hotel Merino,,,Ecuador,-4.648767,-79.1325195
4468658389,,https://nickyamazonlodge.com/,,Ecuador,-0.0696736,-76.1635817
4473037343,Hostería Florecer,,,Ecuador,-3.6705201,-79.6868457
4476154590,Polylepis Lodge,,,Ecuador,0.705367,-77.979553
4479936490,Hostal al Paso,,,Ecuador,-0.9220693,-80.4495255
4483297090,,,,Ecuador,0.8148802,-77.7144014
4483893789,Terrazas del Mar,,,Ecuador,-0.8614569,-80.5364796
4484634890,Polylepis Lodge,https://polylepis.com/,,Ecuador,0.7069205,-77.9807143
4487124090,Hotel baños,,,Ecuador,-1.3892938,-78.4158079
4494240890,Ofelia Cañola,,,Ecuador,-2.1027678,-79.9318186
4497035893,Hotel Imperial,,,Ecuador,0.0422787,-78.1435863
4499603890,Plaza Hotel Maria Isolina,,,Ecuador,0.0472721,-78.1462658
4501286489,El Descanso de Ramses,,,Ecuador,-4.2598709,-79.2217582
4503345489,La Cuadra,http://www.lacuadra-hostal.com,,Ecuador,0.2997008,-78.2634733
4508547795,LA CASITA Guest House,,,Ecuador,-2.2028645,-78.8452878
4511839792,bucay,,,Ecuador,-2.200215,-79.1388991
4514051806,Donkey Den Guesthouse,,,Ecuador,-0.9752608,-80.8388952
4519166492,Orquídeas,,,Ecuador,-0.4666588,-80.4547997
4522497889,Hotel Galápagos Paradise,,,Ecuador,-0.7402894,-90.3120552
4528884890,Panamericano,,,Ecuador,0.3301648,-78.2120531
4530368456,Hotel Vieja Mansion,http://www.hotelviejamansion.net/,,Ecuador,-2.9003911,-79.0046725
4531006970,Hotel las Gardenias,https://www.gardeniashotel.com/,,Ecuador,-2.894366,-79.0083796
4531035691,Hotel Rio Piedra,http://www.hotelriopiedra.net/,,Ecuador,-2.8988459,-79.0046645
4533031311,Hotel PerlaVerde,,,Ecuador,-0.2328993,-79.1715647
4534695125,Hostal Chordeleg,https://www.hostalchordeleg.com/,,Ecuador,-2.8953573,-79.0067614
4535069589,Puerto Manta Hostal,,,Ecuador,-0.9426449,-80.7290418
4539771899,Hosteria Tonsupa,,,Ecuador,0.8831331,-79.8109195
4540412492,,,,Ecuador,-1.040032,-77.7179353
4542189389,Atahualpa de oro,,,Ecuador,-0.695923,-80.0958946
4543326953,Hostal Kolibri Bed & Breakfast,http://www.hostalkolibricuenca.com/,,Ecuador,-2.914636,-79.0058588
4543361990,cuenca rooms Bed & Breakfast,http://www.cuencarooms.com/es/,,Ecuador,-2.9064292,-79.0121166
4543907489,Choza de don Wilson,http://www.hosteriachozapapallacta.com,,Ecuador,-0.3739121,-78.1463175
4546551547,Hotel la Orquidea,http://laorquidea.com.ec/,,Ecuador,-2.8969273,-79.0029958
4546789290,El Cano,,,Ecuador,-0.0631522,-78.352452
4552979982,Hotel Santa Mónica,http://hotelsantamonicaecuador.com/,,Ecuador,-2.8981773,-79.0028626
4553209789,Hotel Castillo Real,,,Ecuador,-0.6713908,-76.8785767
4553420390,Hotel Piedra del Mar,https://www.piedradelmarhotel.com/,,Ecuador,-1.5597799,-80.8125372
4556404289,Posada del Caminante I,https://www.posadadelcaminante.com/,,Ecuador,-0.9534208,-90.967268
4557264556,Hotel Atahualpa,https://www.ubicacuenca.com/info/hotelatahualpa,,Ecuador,-2.8990692,-78.9994627
4557724995,Ecuahogar,,,Ecuador,-2.1399754,-79.8906674
4558335794,Hotel mirador,,,Ecuador,-0.304482,-76.8600707
4559461889,Chukitos Inn,,,Ecuador,0.2280244,-78.2620103
4563713090,Hotel Rosamia,https://www.hotelrosamia.com/,,Ecuador,-2.8975546,-78.9999565
4563894638,Hostal Huasi Quñi,https://www.facebook.com/Hostal-Huasi-Qu%C3%B1i-1552554475062114/?fref=ts,,Ecuador,-2.9011416,-78.9990577
4564287489,Alston Inn Hotel,,,Ecuador,-0.2029611,-78.4931927
4565469391,Pacoche Lodge,http://www.pacochelodge.org,,Ecuador,-1.0665128,-80.8812884
4569738989,Hotel El Oro,,,Ecuador,-0.992887,-76.9379877
4577764989,Chonta Dorada,,,Ecuador,-4.0672471,-78.9550503
4578449797,GalaHouse,,,Ecuador,-0.7359455,-90.3101579
4580418891,Hostal San Andres,,,Ecuador,-2.4307045,-79.3417027
4580460792,,,,Ecuador,-2.1538369,-79.8905259
4584788890,Meeting Point,http://crplanetaazul.com,,Ecuador,0.0580301,-76.8808074
4586404990,Posada Munaylla,,,Ecuador,0.2992567,-78.2669501
4588217190,El Conquistador,,,Ecuador,-0.241189,-79.1717681
4588376191,,,,Ecuador,-1.2463164,-78.6282281
4588418689,Complejo Camino Al Sol,http://www.caminoalsol.com,,Ecuador,-1.7676637,-79.2520301
4590685292,,,,Ecuador,-1.6628377,-78.6611718
4591649989,Hotel Llactacunga,,,Ecuador,-0.9289427,-78.6238611
4593665389,Hotel Salinas,,,Ecuador,-0.7460219,-90.3127879
4595647890,Hotel El Poguio,,,Ecuador,-1.9347989,-78.7108345
4595647891,La Casta Hotel,,,Ecuador,-1.3094212,-78.4998804
4596353796,D2,,,Ecuador,-0.1949296,-78.4934247
4596418590,Tr,,,Ecuador,-0.1688581,-78.4687302
4596883292,Ceibo Dorado,,,Ecuador,-1.0540312,-80.4507067
4597227899,Hotel Shekinah Internacional,http://hotel-shekinah.com,,Ecuador,0.9630638,-79.6539641
4598441691,Hostal Gran Ruiseñor,,,Ecuador,-1.7047969,-79.0346613
4599766596,Hotel Catamayo,,,Ecuador,-3.9862308,-79.3572259
4601525794,Casa,,,Ecuador,-2.150085,-79.9291167
4602911189,Casa Espinoza,,,Ecuador,-2.1511404,-79.9284602
4603847595,Hostal La Latina,https://www.facebook.com/cuencahostallatina/?fref=ts,,Ecuador,-2.8943735,-79.0042161
4603883433,,,,Ecuador,-2.8982172,-79.010153
4605236191,Hostería Samawa,,,Ecuador,-0.2657447,-79.1116508
4610531235,Hostal el Castillo,,,Ecuador,-1.3984074,-78.419441
4610762793,,,,Ecuador,-2.0020869,-79.4851206
4611948069,Hotel Rios del Valle,http://riosdelvalle.com/,,Ecuador,-2.8994339,-79.001435
4612001690,Verito,,,Ecuador,-1.3977212,-78.4241271
4612420265,Apartamentos Otorongo,https://hotelotorongo.com/,,Ecuador,-2.8968963,-79.0139103
4614076492,Horel Vista Hermosa,,,Ecuador,-0.3677899,-78.3708993
4615395740,Hostal Sanchez,https://www.facebook.com/residencial.sanchez?fref=ts,,Ecuador,-2.8936047,-78.9996212
4615510489,Turista,,,Ecuador,-1.4895117,-78.0086602
4616317790,Chukitos hostal Inn,,,Ecuador,0.2280676,-78.2619474
4618785089,Hotel Allitiana,,,Ecuador,-2.8984741,-79.006011
4620711673,Hotel Santa Ana,https://hotelsantaana.webs.com/,,Ecuador,-2.8982856,-79.007734
4620746474,Hotel 4 Ríos,https://hotelandreina1177.webs.com/,,Ecuador,-2.9011179,-78.9964642
4630761390,Ecuahogar,,,Ecuador,-2.1399327,-79.8906337
4636542489,Hostal laguna,,,Ecuador,0.3486288,-78.1234668
4637871573,Hostal Astoria,,,Ecuador,-2.8911557,-78.9939726
4639739691,ADO Charlie,,,Ecuador,-2.2651861,-79.9046827
4649455992,La Moreria Decameron,http://www.lamoreriadecameron.com,,Ecuador,-0.3923236,-78.5159967
4650412291,Cabañas Eco Iwia,http://www.ecoiwia.com,,Ecuador,-1.6366489,-77.9383184
4653753212,Sunshine Hotel,,,Ecuador,-2.5088046,-78.9258998
4654979290,"Hotel ""Santa Rosa""",,,Ecuador,-3.4493599,-79.9611885
4663057591,Hotel Los Ángeles,,,Ecuador,-2.3072322,-78.1180022
4663614408,Zavala,,,Ecuador,-1.3592262,-80.7379084
4666155546,Hotel Paradaise,,,Ecuador,-0.2767556,-78.543547
4680552300,Tukunari Lodge,https://www.facebook.com/tukunarilodge/?_rdr,,Ecuador,-0.5586088,-75.48173
4684399789,Katarma Hotel,,,Ecuador,-0.9047311,-89.6121444
4686035122,Marvento,,,Ecuador,-2.2028375,-80.9805432
4687999193,Grand Calvas,,,Ecuador,-4.3270628,-79.5566376
4688904690,Hostal Restaurant Cañar,,,Ecuador,-2.5554909,-78.9387955
4693007390,Residencia San Carlos,,,Ecuador,-1.6629245,-78.6627668
4693070290,Hotel-Restaurante Mary,,,Ecuador,-2.3869097,-77.5037992
4693102290,Hotel Irar,,,Ecuador,-2.3833593,-77.5058201
4693102291,Hostal Ñuca Huasi,,,Ecuador,-2.384672,-77.5039634
4693102292,Hotel Taisha,,,Ecuador,-2.3849084,-77.5039372
4693102293,Hotel Yajanúa,,,Ecuador,-2.3849887,-77.503923
4694357754,HOSTAL VENTURA,,,Ecuador,-2.2039292,-78.848143
4695996967,Hotel Caluva Loja,,"Loja, Ecuador",Ecuador,-3.9969517,-79.2067827
4698260392,Hotel Somagg,,,Ecuador,-0.9416468,-79.2254845
4699124518,,,,Ecuador,-3.4798849,-80.2400478
4699265682,Hotel Ambato,,,Ecuador,0.9895653,-79.6562703
4699506289,Palmar del Río,,,Ecuador,-0.9120639,-77.808226
4701793203,Salitre,,,Ecuador,-1.8290086,-79.8153661
4704611190,Gozaga,,,Ecuador,-0.2401675,-79.1709203
4710544294,El Galeón,,,Ecuador,-1.826013,-80.7528931
4716457789,Hotel los Yutzos,,Tena,Ecuador,-0.9944759,-77.8143952
4717571957,Sacha Luna Ecolodge,,,Ecuador,-0.4440656,-76.5289568
4718926394,HOSTAL NUEVO AMANECER,,,Ecuador,0.3457346,-78.1229958
4719016390,HOSTAL DEL AMOR,,,Ecuador,0.3353604,-78.170522
4720527490,Albatros Aparments,,,Ecuador,-2.1698044,-79.8928689
4721321191,Gran Panorama,,,Ecuador,-1.6318306,-79.258084
4722492032,Hospedaje El Rincon de Juanito,,,Ecuador,-1.3579142,-78.6166836
4729583390,Europa,,,Ecuador,-2.8952723,-78.998039
4729898894,Hilton Colón,,,Ecuador,-0.2075653,-78.4964541
4730090692,Hotel Paraiso,,,Ecuador,-1.0630551,-80.4596806
4739510024,Hotel Juliands,,,Ecuador,-1.3973539,-78.4202096
4744272521,Hostal ANITA,,,Ecuador,0.8664062,-78.4498389
4745170022,Hotel Zulema 2,,,Ecuador,0.9685258,-79.6516491
4745170023,Hotel Zulema Inn,,,Ecuador,0.9643745,-79.6513029
4745180821,Hotel Zulema,,,Ecuador,0.9648662,-79.653092
4747295321,Bravo Grand Hotel,,,Ecuador,-1.0399414,-79.475605
4748902221,Barbasquillo,,,Ecuador,-0.9440543,-80.7419214
4749746821,Hostal Chasky Wasky,,,Ecuador,-2.5097343,-78.9278165
4752082421,veronica,,,Ecuador,0.0716293,-80.0537458
4753711422,Hotel Ecuatoriano,,,Ecuador,-3.2618328,-79.9557806
4754536324,Ecocampo Lodge,,,Ecuador,-0.8717899,-91.0146453
4755571221,Hotel Mery Carmen,,,Ecuador,-0.6721356,-76.8786249
4757238762,HOTEL MIRAFLORES,,,Ecuador,-3.9973055,-79.2045042
4757238768,HOSTAL MENDOZA,,,Ecuador,-3.9975381,-79.2048785
4757294025,Hotel Prado Internacional,,"Loja, Ecuador",Ecuador,-3.9984029,-79.2055487
4758773321,Hotel Sueño Dorado,,,Ecuador,0.9321108,-79.6695188
4760562321,Hotel Tropical INN,,,Ecuador,-0.2474103,-79.1538331
4760883027,,,,Ecuador,-0.3293831,-78.5495153
4767286721,La Chorrera 1,,,Ecuador,-1.7993094,-79.5227319
4771244999,CAPITAN Max,,,Ecuador,-0.7462768,-90.315543
4772031428,Hostal Oriental,,,Ecuador,-1.8555361,-79.9770912
4772249722,Maito Landia,,,Ecuador,0.0826162,-76.8985872
4774551941,Hotel California  Santa Rosa,,,Ecuador,-3.4508014,-79.9605433
4778143322,Hacienda Zuleta,haciendazuleta.com,,Ecuador,0.2015704,-78.0869283
4782300922,Hostal Dorita,,,Ecuador,-0.9630558,-80.6894261
4784985325,Hostel Estacion,,,Ecuador,-1.6704014,-78.6538989
4787380121,Hotel Lanus,,,Ecuador,-1.0630693,-80.4598595
4789281822,Hostal Santa Fe,,,Ecuador,-2.9007379,-79.0036505
4789868142,Portugal,,,Ecuador,-1.2650571,-78.6256481
4790047821,Casa Grande,,,Ecuador,-2.7061256,-80.2461717
4791261062,La Coupole Hotel,,,Ecuador,-0.2055979,-78.4938691
4791261215,La Casa Verde,,,Ecuador,-1.3945382,-78.4053203
4796063825,Hostería Cuzay,,,Ecuador,-2.8659431,-78.7873837
4801940823,Edificio Vega,,,Ecuador,-0.9427809,-79.226094
4802176823,hostal palma real,,,Ecuador,0.3477509,-78.1287072
4804138024,Hostal Bastión Popular,,,Ecuador,-2.1001142,-79.9280535
4804774721,Fabricios Hosteria,,,Ecuador,0.4506611,-78.0073206
4804774724,Arco Iris Hosteria,,,Ecuador,0.4707446,-78.0485467
4804774821,Hosteria El Kibutz,,,Ecuador,0.4652132,-78.0134584
4804774921,Hosteria El Fogon del Paisa,,,Ecuador,0.4659339,-78.0136919
4806652728,Hostal La Cocina Tipica,,,Ecuador,-0.0638254,-78.3610005
4806814821,Hotel Kamaro,,,Ecuador,-0.2423679,-79.1694499
4807822723,Hotel Palmar del Sol,,,Ecuador,-1.0672466,-79.4965854
4808679838,Hotel Torres,,,Ecuador,-3.6362608,-78.9256967
4810114424,Hotel Viena Internacional,,,Ecuador,-0.2209725,-78.5099955
4810656322,Hotel Villamar,,,Ecuador,-0.1981699,-78.4981826
4810656324,Hotel Saint Thomas,,,Ecuador,-0.2057735,-78.4929131
4810656325,Hotel Villa Lafayette,https://hotelvillalafayette.com/,Quito,Ecuador,-0.2048003,-78.4919262
4810656327,Hotel Joremis,,,Ecuador,-0.2062184,-78.4930024
4810656329,Hotel Amaranta,,,Ecuador,-0.2086519,-78.4940062
4810656330,Hotel La Cartuja,,,Ecuador,-0.2087786,-78.4941919
4810656331,Hotel Plaza,,,Ecuador,-0.2089053,-78.4943214
4810656334,Hotel Mansion del Angel,,,Ecuador,-0.2160567,-78.5004805
4810658521,Marquiz Hotel Boutique,,,Ecuador,-0.2028941,-78.492511
4810658522,Fuente de piedra Hotel,,,Ecuador,-0.2031071,-78.4932647
4810658523,Hotel Ricks,,,Ecuador,-0.205526,-78.4931558
4810677122,Hostal Vista Amazonas,,,Ecuador,-0.2023841,-78.4933933
4810677221,Hotel Reina Isabel,,,Ecuador,-0.2024414,-78.4934912
4810736921,Hostería Nantu,http://www.hosterianantu.com/,,Ecuador,-1.5536543,-80.8113867
4812409629,Hostal El Tucan,,,Ecuador,-0.2311807,-78.4909666
4812429421,Hostal Olt,,,Ecuador,-0.2443419,-78.5007174
4812430122,Hotel El Corcel,,,Ecuador,-0.4499092,-78.5588426
4812430123,Hotel Clyan,,,Ecuador,-0.5103012,-78.5738112
4812447521,Hosteria Tiopullo,,,Ecuador,-0.6569543,-78.5900773
4813676674,Hotel,,,Ecuador,-3.6354336,-78.9274286
4815668240,Hotel Classic,,,Ecuador,-1.2643488,-78.6359732
4816759030,Hotel Las Acacias,,,Ecuador,-1.6377596,-78.6793138
4816769531,,,,Ecuador,-1.629575,-78.6804112
4816769534,Hotel Sumak Pakari,,,Ecuador,-1.7020762,-78.7698657
4816873021,La Giralda Hotel,,,Ecuador,-1.9344596,-78.7074677
4819075421,Hotel Garaje,,,Ecuador,-2.2894921,-78.9828093
4823743523,Hotel Los Cañaris,,,Ecuador,-2.5534056,-78.938835
4823799022,Hostal Londres,,,Ecuador,-3.9969207,-79.2032178
4825962223,Hotel Oasis,,,Ecuador,-2.7183435,-78.8875168
4827333124,Harmony Hostal,,,Ecuador,-2.8978586,-78.9970143
4827415921,,,,Ecuador,-0.4778179,-80.452481
4827573221,Hotel Posada del Rey,,,Ecuador,-2.8988337,-79.005261
4827861523,Cuenca Suites,,,Ecuador,-2.8954661,-79.0104804
4827861621,Azul de la Plaza,http://facebook.com/hotal.azuldelaplaza,,Ecuador,-2.895616,-79.0107558
4827861623,Hotel Tomebamba,,,Ecuador,-2.8963445,-79.0070029
4827861922,Hotel San Ezequiel,,,Ecuador,-2.897395,-79.0060956
4828058221,Sara luna,,,Ecuador,-0.252606,-78.5387184
4829497730,Hotel Pegasus,,,Ecuador,-2.9006502,-79.0045375
4829543923,Hotel Panamá Hats,,,Ecuador,-2.9022397,-79.0031665
4829543927,Casa Merced,,,Ecuador,-2.9011087,-79.0039892
4829722323,Hotel Cotopaxi,,,Ecuador,-0.4727598,-76.9828404
4830990523,Hostal Siberia (economico),,,Ecuador,-2.9012945,-79.004636
4835788423,Hotel cocos,,,Ecuador,0.8720728,-79.8518546
4839152422,Vallejo Hotel,,,Ecuador,-3.481835,-80.2340702
4839253421,Hotel Huaquillas,,,Ecuador,-3.4800253,-80.2396865
4842883424,Ecuatoriano,,,Ecuador,-3.2618553,-79.9557264
4844647123,El gran hotel de Lago,,,Ecuador,0.0836607,-76.8907331
4850785221,Hotel Restaurante la Chimenea,https://hotelchimenea.com/,,Ecuador,-1.3994557,-78.423747
4857578221,Hotel Rodelu,https://www.hotelrodeluatacames.com/,,Ecuador,0.8710211,-79.8518606
4858490121,Hostal y restaurante El Arriero,,,Ecuador,0.3313802,-78.2105431
4860379925,Miraflores,,,Ecuador,0.3457737,-78.1187624
4860380821,Hostal Fenix,,,Ecuador,0.3492857,-78.1200281
4860811723,Texas Home,,,Ecuador,0.0680205,-80.0568377
4863037821,Hostal Casa Grande,,,Ecuador,-0.1768138,-78.4940824
4867039921,Yarina Eco Lodge,,,Ecuador,-0.4647977,-76.8448571
4876953727,Hotel BELAMAR,,,Ecuador,-2.2210429,-80.909717
4876954385,Hotel LA CALETA,,,Ecuador,-2.2210652,-80.9097038
4880630823,Europa,,,Ecuador,-0.2617924,-78.5421055
4882497923,Papacho's Hostel,https://papachoshostel.com/,,Ecuador,-1.3997923,-78.4258566
4889548422,Kapawi Eco Lodge,,,Ecuador,-2.5432647,-76.8577561
4902201757,,,,Ecuador,-3.2848245,-79.3112113
4902815908,Hostal Margarita,,,Ecuador,-0.2873726,-78.4396598
4906376129,Hotel Rumy Cruz Wasi,,,Ecuador,-0.9633863,-78.8999246
4906473221,UENG servicios hoteleros,,,Ecuador,-0.7464072,-90.3145099
4906734621,Siona Lodge,,,Ecuador,-0.0057678,-76.1769427
4908238423,Mi Playa Vacation Rental,,,Ecuador,-0.9570213,-90.9685208
4913004023,Ummagumma Hostel,,,Ecuador,-1.8227932,-80.7532715
4914912324,Hostal Izucam,,,Ecuador,-1.5587811,-80.8119681
4915638889,Sumak Wasi Suites Hotel,http://www.sumakwasihotel.com,Otavalo,Ecuador,0.2285257,-78.2609302
4917895053,Grand Hotel Paraiso Insular,,,Ecuador,-0.9046148,-89.6120128
4919418028,Sumpa Hotel,,,Ecuador,-1.8235977,-80.7530283
4919418029,Cayena Beach,,,Ecuador,-1.8225899,-80.7516924
4919477121,,,,Ecuador,-1.827337,-80.7532153
4919477124,,,,Ecuador,-1.8239187,-80.7528621
4919477522,,,,Ecuador,-1.8278226,-80.7527563
4921064716,Gran Hotel Napoleon,,,Ecuador,-1.239409,-78.6276368
4921332523,Hotel El Molino,,,Ecuador,-2.2014606,-78.8458982
4921347721,Hostal Real,,,Ecuador,-0.1853342,-78.5091938
4921404622,Hotel Sigsig,,,Ecuador,-3.0456394,-78.7946773
4922420621,La Posada del Chileno,,,Ecuador,-0.1381211,-80.2295077
4922552357,Hosteria Llanovientos,,,Ecuador,-1.398773,-78.4267439
4922682922,Grand Imperio,,,Ecuador,-1.396061,-78.423932
4925412423,Hostal Rincón Baneño,,,Ecuador,-1.3968937,-78.4231348
4927884921,Divono Niño,,,Ecuador,-3.4513551,-79.9599229
4930696826,Hostal Israel 2,,,Ecuador,-1.3987398,-78.4240437
4931615850,Hacienda San Agustin de Callo,https://www.incahacienda.com/,,Ecuador,-0.7289296,-78.5885988
4935730223,Dann Carlton Hotel,,,Ecuador,-0.1835811,-78.4807184
4937167521,Estuario,,,Ecuador,0.9854068,-79.6549918
4939135021,Hotel Ceibo Real,,Portoviejo,Ecuador,-1.0540311,-80.458346
4941165121,HOSTAL GRAN COLOMBIA,,,Ecuador,-3.9864977,-79.2044761
4941343721,MATRO,,,Ecuador,-3.2655302,-79.9593104
4942795523,,,,Ecuador,-2.2049267,-79.1376156
4942813522,Hotel Casa Blanca,,,Ecuador,-2.1257435,-79.589065
4945705024,Hostal Bryana,,,Ecuador,-1.3960257,-78.424994
4949158421,Hotel Rishuo,https://www.hotelrishuo.com/,,Ecuador,-0.9840043,-80.845215
4951983122,Hotel Los Bancos,https://www.booking.com/hotel/ec/los-bancos.html?aid=942273,,Ecuador,0.0267407,-78.895683
4952006338,HOTEL CAMPESTRE DEUS,,"PINTAG, LA TOLA",Ecuador,-0.3571683,-78.3921947
4954968522,Hostel Acacias,,,Ecuador,0.8042048,-77.7281914
4968806223,Edén Treehouse,,,Ecuador,-0.0671038,-78.7715587
4969442121,hotel orquídeas 2,,,Ecuador,-3.4829088,-80.2280437
4972808753,Casa Giralda Hosteria,,Banos,Ecuador,-1.4000903,-78.4317496
4983912325,Athenas,,,Ecuador,-2.4539187,-78.172829
4983912327,Hostal CATAZHO,,LIMON INDANZA,Ecuador,-2.9642132,-78.4299644
4985996921,Hostel Sendero de Volcanes,https://senderodevolcanes.com/,,Ecuador,-0.9223501,-78.6211258
4986127122,Hostal La Orquidea,,,Ecuador,-2.9643588,-78.4300661
5008372821,Milton casa,,,Ecuador,-0.9048668,-89.6116411
5008983142,Urbanización Molinos de Viento,,,Ecuador,-0.3415768,-78.4495291
5010112224,Hostal Palanda,,"Palanda, Zamora Chinchipe",Ecuador,-4.6485551,-79.1325969
5015717321,Hospedaje Muro De Las Lagrimas,,,Ecuador,-0.9565874,-90.968265
5017058923,El charapano,,Zumba,Ecuador,-4.8631085,-79.1313306
5019110121,Hotel Pikeiro Blue,,,Ecuador,-0.9618124,-80.6950638
5025171421,Wyndham,,,Ecuador,-0.1861828,-78.4880119
5029651825,Villa Ana Maria,,,Ecuador,-2.8442654,-78.9052943
5030428721,Apartamentos Navarra,,,Ecuador,-1.0378391,-78.5892733
5030507923,La Colina,,,Ecuador,-1.587966,-78.9952988
5030671726,Hostería mar adentro,,,Ecuador,-2.208575,-80.9709023
5030826121,Rosario,,,Ecuador,-2.6456814,-80.3810203
5033456925,Hostal Segovia,,,Ecuador,-1.6724456,-78.649012
5033457221,Residencial Primavera,,,Ecuador,-2.203943,-78.8473591
5035908922,Hotel San Jacinto,,,Ecuador,-0.7760257,-80.5165132
5037973322,Hostal Manabi,,,Ecuador,-1.2368095,-78.6267947
5039353822,Sacha Sisa lodge,,,Ecuador,-1.0299707,-77.5808773
5040021021,Raddison,,,Ecuador,-2.1744464,-79.9016759
5047215321,,,,Ecuador,-0.9492988,-80.7226398
5047753722,Hostería B&Z,,,Ecuador,-4.1105416,-80.1066829
5052042223,Hotel Oro Negro,,,Ecuador,-0.4622512,-77.9047292
5053724822,Hostal Residential,,,Ecuador,-1.4860712,-77.9981166
5056505721,Hotel Los Maizales,,,Ecuador,-4.116786,-80.1077129
5056522121,Hostal Erica,,,Ecuador,-0.9993059,-77.8133274
5059309624,Hostal Laurita,,,Ecuador,-0.9991215,-77.8118264
5061188900,Holiday Inn,,,Ecuador,-1.4318975,-79.2776944
5061188901,Holiday Inn,,,Ecuador,-1.4315597,-79.2775657
5061188906,Holiday Inn,,,Ecuador,-1.4319565,-79.2783006
5066745522,Whymper,,,Ecuador,-1.6675783,-78.6546925
5070395921,Hotel-Vacacional-Marimba,,,Ecuador,0.8642079,-79.8665526
5075418323,Hotel La Casona,,,Ecuador,-1.0437961,-78.5912367
5076416925,Hostal Crystal,,,Ecuador,0.0438671,-78.1414437
5082524521,Hostería San Gerónimo,,,Ecuador,0.726148,-78.2185669
5082685921,Residencial Madrid,,,Ecuador,0.3495343,-78.1196098
5088763721,Hotel Principado,,,Ecuador,-1.0511739,-80.4592909
5089650048,Coco Solo Eco Lodge,,,Ecuador,0.2481276,-80.0330026
5102069523,San Fernando,,,Ecuador,-1.0460062,-80.4573845
5102270521,Hostal SumaQ,,,Ecuador,-3.997355,-79.2056396
5103539921,EuroBuilding,,,Ecuador,-0.1893541,-78.3401088
5107457722,Hotel Barbasquillo,,,Ecuador,-0.9450815,-80.7520165
5110337322,Hotel Rogers,,,Ecuador,0.8664265,-79.861045
5111252427,Punta Azul,,,Ecuador,0.0969773,-80.0477543
5111702002,Hotel FLOR DEL CAMPO,,Pedro Vicente Maldonado,Ecuador,0.081853,-79.0509702
5111961226,,,,Ecuador,-0.3055442,-78.5425179
5115437921,Sr,,,Ecuador,-2.4257252,-79.3401669
5118608121,Dawns Lodge,,,Ecuador,-0.220758,-78.5047455
5122638204,Hostería Caballo Campana,,,Ecuador,-2.9021106,-79.0659173
5123460921,Gran Hotel Dorado,,,Ecuador,-3.2573589,-79.9585271
5125512921,Hostal Aly,,,Ecuador,0.2287441,-78.2613574
5127093021,Cino Fabiani Guesthouse,,"Guayaquil, Guayas, Ecuador",Ecuador,-2.183473,-79.8752964
5134097721,Hotel Galapagos Island,,,Ecuador,-0.740173,-90.3131263
5142925123,La Jungla,,,Ecuador,-2.6249955,-77.7894115
5148528621,El Márquez,,,Ecuador,-0.9362199,-78.6100893
5154396421,Hostal Posada,,,Ecuador,-0.705177,-80.1018997
5154396621,Hostal Chuno,,,Ecuador,-0.7052025,-80.1016823
5154404221,Hotel Gran Colombia,,,Ecuador,0.0392832,-78.1467057
5157239822,El Rinconcito,,,Ecuador,-0.4618372,-80.4538643
5157241222,Hôtel Boulevard,,,Ecuador,-0.952167,-80.7155278
5161933322,Alta Montanita Hôtel,,,Ecuador,-1.8246268,-80.752736
5162100822,HOSTAL JOCAY,,,Ecuador,-0.9580863,-80.7148719
5162106021,Hostal Jocay,,,Ecuador,-0.9580821,-80.7148884
5162978632,hostal katty,,,Ecuador,-1.4832321,-80.7733143
5162978828,Hostal Mancora,,,Ecuador,-0.9445994,-80.7405531
5163854619,Complejo Vacacional Tiwintza,,,Ecuador,0.885684,-79.814174
5165963922,Palma coco,,,Ecuador,-1.6789576,-80.8125486
5168082521,HOSTERIA EL REMANSO,,,Ecuador,-4.2170797,-79.2338416
5170249421,Los Shyris,,,Ecuador,-1.670531,-78.652659
5171393421,Finca Flor de la Montaña,,,Ecuador,0.3469046,-78.5267286
5172245921,Bamboo Lodge,,,Ecuador,-0.0113981,-76.1852995
5175112421,Hotel Primavera,,"Loja, Ecuador",Ecuador,-3.9954848,-79.2047998
5177410021,,,,Ecuador,-2.1528941,-79.889107
5181497123,Los Angeles Hostal,,,Ecuador,-4.3865418,-80.2435353
5184352223,Villa Laguna,,,Ecuador,-0.7464572,-90.3165038
5186038223,Gran Hotel Gualaquiza,,,Ecuador,-3.4024575,-78.5823702
5194881021,San vicente,,,Ecuador,-0.5811574,-80.4133204
5196743521,Amarun Pakcha,https://www.facebook.com/turismo.sumaco/,,Ecuador,-0.7169601,-77.5743512
5204290822,Aventura Park,https://www.aventurapark.com/,,Ecuador,-3.2169114,-79.2368835
5208542027,Hostal Jair,,,Ecuador,-0.6725415,-76.8781995
5208612629,Hotel Cuenca,,,Ecuador,-0.6700688,-76.8775186
5208612631,Mesón de Barrabas,,,Ecuador,-0.6634852,-76.8812006
5208612632,Hostal Amazonas,,,Ecuador,-0.6331737,-76.8898023
5208614428,Gran Hojeda,,,Ecuador,-0.6683693,-76.8768492
5208661922,Hostal Guerrero,,,Ecuador,-0.6692741,-76.8756358
5210593822,Hostal  Residencia Universitaria,,,Ecuador,-0.2042508,-78.5068357
5210664551,Hotel Jekannyty,,,Ecuador,-0.467659,-76.98817
5212316528,Hotel las olas,,,Ecuador,-2.2041887,-80.977078
5215204521,Hotel Mar Caribe,,,Ecuador,-2.2243504,-80.9065679
5215640233,Genoveva,,,Ecuador,-0.7129047,-77.794518
5216141423,Hostal tres corazones,,,Ecuador,-2.9176433,-79.0331235
5217417469,La Buena Vida,,,Ecuador,-1.6781837,-80.8105886
5222516321,Hotel Quesada,,,Ecuador,-0.2407705,-79.1714673
5228441611,Quinta Natura Hotel,http://quintanaturahotel.site/,,Ecuador,-0.129615,-78.3164746
5230211627,La Estancia,,,Ecuador,0.9215035,-79.6603247
5232871922,Hostal Colonial,,,Ecuador,-1.3976334,-78.4215934
5251308221,Hotel Jira,,,Ecuador,-2.2016727,-79.8857673
5251338021,Hostal La Mirada De Solitario George,,,Ecuador,-0.7396457,-90.3178804
5253288121,Hostería la posada de Mercedita,,,Ecuador,0.8783906,-79.825448
5254518423,,,,Ecuador,-0.4726157,-76.9813818
5256350921,Hosteria Sumak Pakari,https://www.hosteriasumakpakari.com/,,Ecuador,0.0912409,-78.7340346
5258278347,Hotel Real,,,Ecuador,-0.3223678,-78.9972639
5258304928,Hotel Castillo Dorado,https://www.facebook.com/CastilloDoradoCrucita/,Crucita,Ecuador,-0.8556927,-80.5334031
5259816923,,,,Ecuador,-0.9620931,-80.7583421
5262890822,El Fénix,,,Ecuador,-1.6363344,-78.680492
5265738022,,,,Ecuador,-0.5947827,-78.6304887
5280872723,Hotel Rossana,,,Ecuador,-3.9855946,-79.3581111
5280872821,Cabañas Yankuam,https://www.yankuamlodge.com/es,,Ecuador,-4.2487355,-78.6597299
5280872921,Hotel Samuria,,,Ecuador,-4.0667036,-78.9559731
5282541307,Hostal El Turista,,,Ecuador,-0.9286892,-78.6210425
5282542827,Hotel Plaza Real,,,Ecuador,-0.9309234,-78.6193541
5285085816,Hotel Imperial,,,Ecuador,-1.6702307,-78.6525175
5286242502,Hostal Florida,,,Ecuador,-1.6606473,-78.6307683
5290621421,La Posada de Carlitos,,,Ecuador,-2.2016097,-78.8483641
5292117310,Hotel Casa del Viajero,,,Ecuador,-0.2331132,-78.3433987
5292117311,Nispero Country House,,,Ecuador,-0.2313458,-78.346576
5304713724,Quinta Oasis,https://www.oasisinecuador.com/,,Ecuador,-1.6045465,-80.8355106
5304715623,Quinta Oasis,https://www.oasisinecuador.com/,,Ecuador,-1.6044639,-80.8354674
5307278952,Hotel Santorini,,,Ecuador,0.3680629,-80.0369609
5309852222,Hotel Venecia La Morita,,,Ecuador,-0.2141925,-78.3820113
5313832430,Hotel Blacio,,,Ecuador,-3.6914266,-79.612171
5327646026,Iguana Hostal 2,,,Ecuador,-1.8247352,-80.7528246
5329408722,FOGATA HOSTEL,,,Ecuador,-2.2108776,-80.969785
5335270237,Hotel Majestic,,,Ecuador,-2.8946874,-79.0035834
5341073124,Hostal El Paraiso,https://m.facebook.com/HostalElParaisoGualaquiza/,,Ecuador,-3.4039611,-78.580392
5344196200,Hotel Imperio,,,Ecuador,-0.933164,-78.622529
5348010902,Llacta Cunga,,,Ecuador,-0.9293018,-78.6241293
5349308947,Nuhouse Boutique Hotel,www.nuhousehotels.com,Quito,Ecuador,-0.2027186,-78.4912639
5349743321,FUNDASEN ALBORADA,,,Ecuador,-2.138111,-79.8992016
5349944738,Habitaciones 6,,,Ecuador,-0.9525158,-78.6168498
5350139521,Hostal el jardín,,,Ecuador,-0.1899391,-78.4881938
5358109051,Hotel Pedernales,,,Ecuador,-0.9325461,-78.625178
5362538121,Paraíso escondido “El Coraza”,,,Ecuador,0.1906032,-78.2240669
5366477023,Hillary Nature Resort,,,Ecuador,-3.5784516,-80.0772898
5384961421,Conjunto Bosques de San Isidro II,,,Ecuador,-0.1470583,-78.4585108
5394619021,Karina,,,Ecuador,-4.3799709,-79.9437585
5397012321,Hostal Samana Wasi,,,Ecuador,-3.6222399,-79.2340675
5401529321,EL GRAN HOTEL,,,Ecuador,-3.5543583,-80.0609864
5408644221,Samana Huasi Hotel,,,Ecuador,-2.4368418,-79.0456241
5418776925,Playa Real,,,Ecuador,1.1018738,-79.1533806
5418785522,Natanael,,,Ecuador,1.0948406,-79.1616651
5422672122,Cumbres Andinas,,,Ecuador,1.0980292,-79.160713
5423506623,Hosteria SPA Agollan,,,Ecuador,-1.3990586,-78.3676822
5423574522,Plaza Cívica,,,Ecuador,-1.2453471,-78.6282197
5423575226,"Hotel Canadá, Riobamba",,,Ecuador,-1.6614252,-78.6629993
5425593901,Casa Condor,,,Ecuador,-0.8686587,-78.9162203
5430448621,Step-Luz,,,Ecuador,1.1070254,-79.1464941
5434378251,Hostal Machalilla,http://www.hostalmachalilla.com,,Ecuador,-1.5585073,-80.8118527
5434388052,Agua Blanca,,,Ecuador,-1.5573994,-80.8099277
5446605655,Hostal Tierra y Mar,www.hostaltierraymar.com,,Ecuador,-1.8217572,-80.7489637
5446606124,SP,,,Ecuador,-1.8234088,-80.7493345
5446792621,Hostería Bel-Air,,Sucúa,Ecuador,-2.4459674,-78.1651035
5446835822,HOSTAL VALLTO MALACATOS,,,Ecuador,-4.2195364,-79.2578268
5448217003,El Refugio de las Aves,,,Ecuador,-1.8226165,-80.7495184
5462954636,Hotel Amparito,,,Ecuador,-1.4315719,-79.2775452
5463109198,Hostal Italia,,,Ecuador,-1.4318435,-79.2776165
5463109258,"Hostal ""Echeandía""",,,Ecuador,-1.4313292,-79.2786717
5463109294,"Hostal ""Samba""",,,Ecuador,-1.4307865,-79.2751874
5463110125,Nuevo Amanecer;Samba,,,Ecuador,-1.4319591,-79.2784007
5463115522,Hostal el Paraiso,,,Ecuador,-1.434846,-79.281984
5464303925,BLUEBEACH HOME,http://www.bluebeachhome.com,,Ecuador,-2.2075079,-80.9672135
5465492422,Hotel Casa Blanca,,,Ecuador,0.082953,-76.8802745
5468229553,Hotel Naranja,,,Ecuador,-1.269351,-79.319947
5469674422,,,,Ecuador,-1.6695321,-78.6530401
5475841623,RIVER VIEW Hostería,https://www.facebook.com/RIVER-VIEW-Hoster%C3%ADa-1257090714424871/?modal=admin_todo_tour,,Ecuador,-1.4140287,-78.2079626
5480770423,Hostal Girasol,,,Ecuador,-1.2060912,-80.3743448
5480831528,"Hotel ""Barraganete""",,,Ecuador,-1.4434,-79.2956388
5481307321,Hosteria Villa Mimi,https://hosteriavillamimi.es.tl/,,Ecuador,0.2197163,-78.2212167
5486709821,Inti Kamari,https://www.intikamari.com/,,Ecuador,-3.2676026,-79.2937419
5491962521,Hostal Inti,,,Ecuador,-0.2515376,-78.5297263
5491993523,Hotel Yumbo imperial,http://www.hotelyumboimperial.com,,Ecuador,-0.2226546,-78.5126183
5497845827,Gran Hotel Dos Pinos,,,Ecuador,-3.4490381,-79.9598908
5501744121,D'GONZALO,,,Ecuador,0.1166794,-75.8659634
5506857538,Hostal María José,,,Ecuador,-3.5887046,-79.6654502
5511749745,Mi Tradcion,,,Ecuador,0.3388651,-78.1255008
5512003502,Hotel La Giralda,,,Ecuador,0.3392679,-78.119985
5512004128,Hotel Lago Azul,,,Ecuador,0.349023,-78.1184906
5522769842,Hotel Imperio del Sol,,,Ecuador,0.3771806,-78.1041625
5522769843,Hotel El Conquistador,,,Ecuador,0.378133,-78.1049853
5526142851,,,,Ecuador,0.3522117,-78.1193943
5526226254,,,,Ecuador,0.3442388,-78.1195013
5532274621,,,,Ecuador,-0.6918316,-90.3145905
5541617327,SEVILLA DE ORO,,,Ecuador,-0.1852259,-76.6461272
5546795121,Hotel Gabrielita,,,Ecuador,-0.0411441,-76.5880811
5550270130,Hostel La Española,,,Ecuador,0.348855,-78.1173109
5553477126,Ñuca Huasi,,,Ecuador,-1.6702816,-78.6527833
5553558524,Hostal 24 horas,,,Ecuador,-0.2542606,-78.5312233
5553731122,Tente sur pilotis,,,Ecuador,-0.4617708,-80.4566531
5555027121,Hotel Sharian,,,Ecuador,-0.1863449,-76.6443675
5578532725,Hostal Dos Hermanos,,,Ecuador,-1.0577381,-80.4588847
5587081122,Hotel 3 estrellas,,,Ecuador,-2.1984783,-79.902881
5590051126,Sol de oro,,,Ecuador,-0.4446657,-77.0018025
5591330723,Urku Wasi,,,Ecuador,-0.9625595,-78.8973615
5593305896,Hosteria Agua & Bambú,,San Francisco de Chinimbimi,Ecuador,-2.6700963,-78.2122912
5593711221,Hotel Cumandá,,,Ecuador,-1.4899243,-78.0066137
5595625021,Carrizal Inn,,,Ecuador,-0.8434986,-80.1659324
5597036821,,,,Ecuador,-0.466112,-76.9824252
5599537223,Hostal Ceibo Real,,,Ecuador,-1.0040053,-80.6964711
5602546924,Hotel Santa Rosa,,,Ecuador,-3.4503078,-79.9608854
5605676421,Hotel Don Guimo,,,Ecuador,-2.4569872,-78.1720004
5612241624,rizo hotel,,,Ecuador,-2.1946307,-79.8825105
5629351150,Hotel Chacon,,,Ecuador,-1.8479607,-80.7462661
5629364921,Hotel M,,,Ecuador,-1.8499089,-80.7466507
5635494709,Virgen del Cisne,,"Loja, Ecuador",Ecuador,-3.9953815,-79.2068366
5643758022,Hotel Bambú,,,Ecuador,0.5072943,-80.0222059
5648082221,Royal Class,,,Ecuador,-0.2405102,-79.1725624
5648082222,Rey de los Andes,,,Ecuador,-0.2407301,-79.1726858
5648082223,Euro Star,,,Ecuador,-0.2413792,-79.1722244
5648082224,San Fernando,,,Ecuador,-0.241583,-79.1721225
5648269924,"Luna Volcán, Adventure Spa",https://lunavolcan.com/,,Ecuador,-1.403097,-78.4158071
5648567512,Hostal Benjamin,,,Ecuador,-3.9991475,-79.2072512
5650412376,Winia Nunkar,,,Ecuador,-4.0616831,-78.9627717
5660040123,Cerro Lobo,,,Ecuador,-1.7062789,-80.7956672
5660128121,Luna Volcán,,,Ecuador,-1.403008,-78.4154385
5661146621,Casa Canelos,,,Ecuador,-2.1485371,-79.8882355
5667049622,Chonanas,,,Ecuador,-0.6969837,-80.0948682
5680660421,,,,Ecuador,-0.2847741,-78.4889482
5683099696,Hospedaje Carmita,,Zuleta,Ecuador,0.2082592,-78.0922768
5683120847,Hacienda La Merced Baja,,Zuleta,Ecuador,0.1951968,-78.0915004
5689103625,hospedaje SUCRE,,,Ecuador,-1.2782264,-80.4189734
5689673423,NuHouse Boutique,http://www.nuhousehotels.com,,Ecuador,-0.2026816,-78.4913579
5712686721,hotel jennyfer,,,Ecuador,-0.1255912,-76.3445538
5726851054,,,,Ecuador,-1.2070997,-80.3712055
5732882721,,https://birdwatchershouse.com/,,Ecuador,-0.0244573,-78.7247519
5732900323,Ganso&Búho;Ganso y Búho,https://www.facebook.com/ayampe.gansoybuho/,,Ecuador,-1.6775397,-80.8134289
5733627522,Viatorem Hostel & Camping,,,Ecuador,-1.8241059,-80.7529625
5739275584,Casa del Sol,https://www.casadelsolmontanita.com/,Montañita,Ecuador,-1.820886,-80.7554056
5740247318,Hotel Tres Reyes,,Portovelo,Ecuador,-3.7180971,-79.6212995
5748062221,Paraíso insular,,,Ecuador,-0.9045318,-89.611914
5779461904,La Casa de mi Abuelo,,Lago Agrio,Ecuador,0.0591526,-76.8751767
5780461496,Oro verde,,,Ecuador,-0.9615934,-78.8990609
5782916555,Hotel la Posada,,,Ecuador,-1.9965653,-78.9654042
5793172257,Hotel las Redes,,,Ecuador,-2.640001,-80.3870126
5793761657,Selina,https://www.selina.com/,,Ecuador,-1.8267229,-80.7533869
5794306006,HOSTERIA PLAYA VERDE,,,Ecuador,-3.8079392,-78.7627141
5794810944,Hotel YANKU,,"Yantzaza, Zamora Chinchipe",Ecuador,-3.8329667,-78.7607363
5797031847,Hotel Oriental,,Yantzaza,Ecuador,-3.8320024,-78.7606473
5801683102,Hotel Sebastian,,Yantzaza,Ecuador,-3.8317234,-78.7601211
5802804160,Hostal Rancho Manabita,,,Ecuador,0.0457531,-78.2103493
5813110453,San Luis,,Chontamarca,Ecuador,-2.3074703,-79.151981
5818743443,Hotel Cuenca,,,Ecuador,-2.8956311,-79.0027361
5825394499,Monte Carmelo,,,Ecuador,-1.3980731,-78.4308317
5825968313,Rio Negro,,,Ecuador,-1.4141585,-78.2114183
5827158088,Sabelu,,,Ecuador,0.0878149,-79.0527428
5828071685,Hotel Limoncocha,,,Ecuador,-0.4060355,-76.6210033
5836323586,Hotel Club Sanmarino,,,Ecuador,0.8800615,-79.8333089
5849584789,Hotel,,,Ecuador,-2.7724057,-78.7135182
5855573488,Hotel Nathalie,,,Ecuador,-2.6393191,-80.3892442
5856788135,Moto posada M.A.I,,,Ecuador,-2.3290738,-79.3969655
5861113389,Hostería El Valle,,,Ecuador,-2.0215833,-78.97336
5862642310,Hotel Las Ruinas,,,Ecuador,-1.608578,-78.6474741
5866358890,Hostal Extasis,,,Ecuador,-1.6627401,-78.6431158
5874434685,Miravalle#2,,,Ecuador,-0.5168405,-78.5791071
5876818785,Hotel Olympus,,,Ecuador,-1.8262203,-80.7534626
5879353595,Hotel,,,Ecuador,-0.4747191,-79.5578219
5879353597,Paraiso,,,Ecuador,-0.5862749,-79.5118678
5879363087,San Miguel,,,Ecuador,-0.2737695,-79.4613037
5879894785,Alfo,,,Ecuador,-0.4740493,-79.5570374
5893777585,A ir hotel,,,Ecuador,-2.1510214,-79.8875593
5909150185,Casa San Rafael,,,Ecuador,-2.8978328,-79.0010679
5910505444,Manso Boutique Guesthouse,https://manso.ec/,Guayaquil,Ecuador,-2.1939827,-79.8802403
5910516485,Hostal J.R,,,Ecuador,-3.1605505,-79.1479813
5910516486,Hotel Reflejos,,,Ecuador,-3.3274017,-79.8092499
5915103618,VICTORIA SUITES HOSTAL,https://www.victoriasuiteshostal.com/,Santo Domingo,Ecuador,-0.2551294,-79.1805968
5915955585,Hostal RNC,,,Ecuador,-3.5538035,-80.0614711
5920504724,Hacienda Los Mortiños,,,Ecuador,-0.5549868,-78.4511072
5932592765,LA HERRADURA,,,Ecuador,-0.9406998,-79.2214505
5940791600,Hotel Blue,,,Ecuador,-0.2595932,-78.5396204
5945331000,El Viajero,,,Ecuador,-0.2054823,-78.4893185
5946695188,Hostal Indanza,,,Ecuador,-3.0578003,-78.4757764
5948599586,Casa Grande Hosteria,,,Ecuador,-0.1826949,-76.6388524
5951660085,Hotel Los Juanes,,,Ecuador,0.0659695,-80.0575046
5951660285,Hostal Regalo de dios,,,Ecuador,-1.5624091,-80.8149292
5951840398,Hotel Acoma,https://www.hotelacoma.com/,,Ecuador,0.2307499,-78.263876
5952695185,NATIVA WHALE DOMES,https://www.nativawhale.com/,,Ecuador,-1.551017,-80.8105009
5968122695,Casa de John,,,Ecuador,-1.7356636,-80.7804565
5969610685,Interoceanico,,,Ecuador,-2.7156966,-78.3232969
5987379988,Hotel Geordanos,,,Ecuador,-2.8950485,-79.0038632
6007011985,villa colonna,,,Ecuador,-0.2162002,-78.5104274
6007580990,Manta Zone Beach,,,Ecuador,-0.9446628,-80.7398492
6017646788,Sumak Pakari,,,Ecuador,-1.6628646,-78.6625298
6018493685,Kennedy,,,Ecuador,0.9882564,-79.6561746
6051520585,Loro verde,,,Ecuador,-2.1950052,-79.8995526
6061043685,Rancho Angelita,,,Ecuador,0.0698074,-78.6960561
6067478685,Wildsumaco Lodge,,,Ecuador,-0.6756395,-77.6012201
6068289685,Piramide,,,Ecuador,-1.2408186,-78.6263271
6069612185,Hosteria Aroma de Cacao,,,Ecuador,-1.0281089,-79.4673606
6069681285,Hotel el Oro,,,Ecuador,-1.0281753,-79.4671934
6081145385,ChatMan,,,Ecuador,-0.9052294,-89.6128302
6086669385,Hotel Las Peñas,,,Ecuador,-2.1917258,-79.8834268
6106251785,Hotel Tintorera,,,Ecuador,-0.9535176,-90.9646165
6116929799,Taller Marcos Menéndez,,,Ecuador,-1.0490824,-80.4871676
6129682985,Hotel Gran Mariscal,,,Ecuador,-0.2021543,-78.4921207
6131130387,Bello sueño,,,Ecuador,0.3554697,-78.1243591
6150639686,Hotel El Libertador,,,Ecuador,-1.6697059,-78.6533715
6153682185,Cuyabeno Lodge,,,Ecuador,-0.0098418,-76.1816746
6157781585,Residencia Colombia,,,Ecuador,0.3477242,-78.1198944
6164453385,Ibis,,,Ecuador,-0.196888,-78.4848726
6175714986,Hotel Boston,,,Ecuador,-0.2435681,-79.1778408
6177079085,Hotel SUPERESTRELLA,,,Ecuador,-0.2387561,-79.1721826
6181214585,Hodu Hospedaje,,,Ecuador,-0.1411847,-78.4709982
6202189070,Paradise Beach 2,,,Ecuador,-0.8238416,-80.5259174
6209085785,Cielo Verde,,,Ecuador,0.2260798,-78.9005358
6221423085,San Joaquín,,,Ecuador,-4.0988636,-79.9572844
6222867185,Hotel Shalom,,,Ecuador,0.0833746,-76.8880116
6225583585,La Posada de Picky,https://www.facebook.com/La-Posada-de-Picky-740822506123380/,,Ecuador,-0.5821189,-80.4125518
6248198188,Villa Yalta,,,Ecuador,-1.8477076,-80.7466746
6250159885,Casa Mandala Hostal,,,Ecuador,-1.8224033,-80.7496699
6260895785,Hostal Kuyllur Ñan,https://kuyllur-nan-ec.book.direct/es-es,,Ecuador,-0.9634682,-78.8992562
6264769785,Hotel Terramar,,,Ecuador,-2.2289384,-80.9344041
6265183780,Chapelet Hostal,,Tababela,Ecuador,-0.1812954,-78.3467239
6267115985,Canangueno Lodge,,,Ecuador,-0.0748066,-76.1622211
6268616906,Hotel Ambato,,,Ecuador,-1.2431012,-78.6316177
6273120486,Hostal Espinoza,,,Ecuador,-2.507525,-78.925772
6273120487,El Cisne,,,Ecuador,-3.9432265,-79.4348783
6273416536,Temistocles Toala,,,Ecuador,-1.0467507,-80.4694132
6274306277,Hostal Boutique Platanal,,,Ecuador,-1.046662,-80.4585419
6274309087,Casa Lolita Hotel - Boutique,,,Ecuador,-1.0458675,-80.4565428
6274481689,Hotel Madrigal,,,Ecuador,-1.0495844,-80.4548939
6276646786,Hostal Camil,,,Ecuador,-4.0084293,-79.2030426
6308105786,Hotel Ambato,,,Ecuador,-1.2428045,-78.6317104
6308382790,Quinta Galire,,,Ecuador,-3.2540802,-79.2862132
6316609985,Hacienda,,,Ecuador,0.4855279,-78.1506419
6317648885,Hostal Giron,,,Ecuador,-3.1594618,-79.146685
6324515675,Hospedaje Familiar Valentina,,,Ecuador,-1.4710077,-78.0991853
6325784186,Boyaca City,,,Ecuador,-2.1876852,-79.8833672
6357964185,CAMELOT,,,Ecuador,0.118118,-75.8642592
6361710285,Hostal Ferrito,,,Ecuador,-1.8718798,-79.9897475
6362488899,Hotel Las Palmeras,,,Ecuador,-1.9195462,-80.0161157
6363481886,Estrella de chimborazo,https://chimborazolodge.com/location.html,Valle de Totorillas,Ecuador,-1.5218915,-78.837157
6365584585,Espiga de oro,,,Ecuador,-4.3798023,-79.9439874
6366309185,Bekalus,,,Ecuador,-4.3826003,-79.9437469
6370623885,Hostería Paraíso de los Paltas,,,Ecuador,-4.0305726,-79.7394764
6370624187,Tambococha,,,Ecuador,-4.0501014,-79.6493087
6373205288,Hostería Villaficus,,,Ecuador,-3.9624694,-79.3864944
6373205289,Hostería Ecológica,,,Ecuador,-3.9756926,-79.3721932
6373205295,Hotel Granada,,,Ecuador,-3.9876904,-79.3587665
6373232085,Rosal del sol,http://www.rosaldelsol.com.ec,,Ecuador,-3.9805692,-79.3662226
6373232097,Reina del Cisne,,,Ecuador,-3.9862837,-79.3571298
6373232407,Encanto del sur,,,Ecuador,-3.9873552,-79.358884
6373232419,Valle verde,,,Ecuador,-3.9868935,-79.3564821
6373232888,Ciudad de Catamayo,,,Ecuador,-3.9877017,-79.3566221
6384700402,Santa Canela Hostel Bar & Grill,,,Ecuador,-2.9038071,-79.0008675
6388409015,Irene,,,Ecuador,-2.5602213,-78.9353054
6389767902,El Tambo,,,Ecuador,-2.5115657,-78.929349
6392086085,HOTEL REINA DE EL CISNE,,,Ecuador,-3.9863541,-79.357077
6397431091,Ramada,,,Ecuador,-1.9327129,-78.7105918
6401203188,Hostal Diego's,,,Ecuador,-3.8520227,-79.4256629
6401684701,Said adventure,,,Ecuador,-1.394968,-78.4246969
6401684702,Palmeras,,,Ecuador,-1.3950803,-78.4247241
6401684704,MayJe,,,Ecuador,-1.3957459,-78.4250823
6401685587,Puerta de Alcalá,,,Ecuador,-1.3952417,-78.4236193
6401685591,Hostal Kamelot,,,Ecuador,-1.3956641,-78.4250874
6401685606,Ross inn hotel,,,Ecuador,-1.3976173,-78.4214346
6401685690,El pedrón,http://www.elpedronhotel.com,,Ecuador,-1.3989494,-78.4219693
6404009289,Ambateñito,,,Ecuador,-1.3972572,-78.4183773
6404142685,Gran Hotel El Amazónico,,,Ecuador,-1.4861809,-77.99969
6404736585,Hostal Villamil,,,Ecuador,-0.9559843,-90.9670332
6405270786,Residencial La Unión,,,Ecuador,-1.2427182,-78.6221895
6405270804,La armadura de Dios,,,Ecuador,-1.2386666,-78.6241863
6417971186,Gallegos,,,Ecuador,-0.9489209,-77.4182876
6417971187,Gallegos,,,Ecuador,-1.0030503,-77.4111064
6418209315,Kachi Yaku,,,Ecuador,-1.4057726,-79.0195728
6418509686,Las Iguanas Hospedaje,,,Ecuador,-3.2392426,-80.0481909
6419831791,Hotel SweetLandH,,,Ecuador,-2.2109423,-79.8878453
6424496890,Príncipe Marcell,,,Ecuador,-0.206408,-78.5026149
6441998985,Hotel Mikasa,,,Ecuador,-0.0465074,-77.5298848
6445890185,Hotel Amazon Green,,,Ecuador,-1.0349028,-77.667187
6445981295,Hostería POROROCA,,,Ecuador,-2.692002,-80.3379762
6465302586,Tambacocha Hotel,,,Ecuador,-4.0502196,-79.6492238
6475811797,Hotel Bamrua,,,Ecuador,-4.3803164,-80.2416183
6483367813,HOTEL BARZA,,Sucúa,Ecuador,-2.4640998,-78.1706502
6495432985,Hostal Moreno,,,Ecuador,-0.6635834,-76.8802913
6505256192,Hostal Amaru,,Baños de Agua Santa,Ecuador,-1.3993196,-78.4236029
6507431485,Hostal El Quinde,https://www.hotelelquinde.com/,,Ecuador,-1.3940838,-78.4213972
6520961601,Hotel Raymipampa,https://raymipampahotel.com,"Cuenca, EC",Ecuador,-2.8950587,-79.0072523
6536306985,Hotel Turismo,,,Ecuador,-0.3004424,-76.8579044
6539682022,Rey Salomón,,,Ecuador,0.0818856,-76.881735
6539735315,Hosteria Reventador,,,Ecuador,-0.1015949,-77.5925795
6540285986,AMASH,,,Ecuador,-0.7048975,-80.1023035
6540386086,Hotel victoria,,,Ecuador,-0.6976768,-80.0963013
6566469585,HOSTAL ANTISISMICO MIS LOCURAS,,,Ecuador,0.0746524,-80.0384869
6568968874,Hostal Murali,,Guayaquil,Ecuador,-2.1424957,-79.8860243
6575121585,Hostal Isabel,,,Ecuador,-0.6142937,-80.4242107
6575569085,Hotel Plaza,,,Ecuador,-2.3054482,-78.1196576
6580992685,The Best,,,Ecuador,-2.2034912,-79.910145
6580999485,Hotel Broadway,,,Ecuador,-2.1992795,-79.8973784
6610123985,El Indio,,,Ecuador,0.0930352,-76.8927441
6617874385,Mindo Lindo,http://www.mindolindo.de,,Ecuador,-0.0235337,-78.7684948
6620264787,David Cobos Pachay,,,Ecuador,-2.1759047,-79.815845
6643480911,París de Noche,,,Ecuador,-1.5588494,-79.7506663
6648103985,Posada Descanso de Floro,,Parroquia El Lucero,Ecuador,-4.4074905,-79.4455569
6655591743,,,,Ecuador,-2.718391,-80.2456975
6658288991,Hotel,,,Ecuador,0.9648526,-79.6523366
6659712785,Hotel Playas,,,Ecuador,-2.6366395,-80.3920959
6662094198,Hostal Tourist 2,,,Ecuador,-2.1891301,-79.8821932
6668229385,Hostal La Joya,,,Ecuador,-0.1702278,-78.3269096
6677155485,Cicame,,,Ecuador,-0.2987877,-76.8570916
6689898085,La Loma Los Italianos,,,Ecuador,-1.5543843,-80.8032052
6693572886,Hotel Loja,,,Ecuador,-3.9981525,-79.2033602
6693597494,Hostal Estrella de Mar,,,Ecuador,-0.7453809,-90.3110103
6693637985,Hacienda Rodeó Grande,,,Ecuador,-1.7933776,-79.6347939
6698282486,Hostel Puerto Misahualli,,,Ecuador,-1.0323342,-77.6678233
6699278687,Delfina Mullo,,,Ecuador,-1.6550579,-78.7100021
6703508585,Lojanita,,,Ecuador,-0.4710196,-76.9849293
6703671587,Ocean Blu,,,Ecuador,-0.9515379,-80.7117565
6711257885,Hotel Cabañas Pimampiro,,,Ecuador,-0.9060906,-89.605988
6715569185,Hostal ally kawsay,,,Ecuador,-0.9945187,-77.813651
6717718485,Hotel María Jose,,,Ecuador,-1.3964162,-78.4238864
6723510085,Hotel,,,Ecuador,-2.6420896,-80.3869263
6742685394,Hostal La Chimenea-Casa de Piedad,,,Ecuador,-1.3992952,-78.4244098
6744534674,Hostal del Rio,https://www.facebook.com/HostalDelRIOec,Balao,Ecuador,-2.9099309,-79.8149123
6747034940,Hotel Bendición de Dios,,,Ecuador,0.8816718,-79.8138155
6747524385,El Escondite,,,Ecuador,-1.6838254,-78.6533582
6750325585,Río del Valle,,,Ecuador,-0.2382253,-79.1722691
6751394498,Casa Blanca,,,Ecuador,-1.5536318,-80.8101083
6772316988,Hostal Paukar,,,Ecuador,0.2294318,-78.2619248
6773298594,Playa Hermosa,,,Ecuador,0.8711457,-79.8532982
6790479585,Residencial Internacional,,,Ecuador,-3.9973489,-79.2034541
6795446403,hotel Andina,,,Ecuador,-0.9669013,-76.9190098
6796239685,HOTEL ALEJANDRINA,,,Ecuador,-2.8992834,-79.0013552
6804197386,El Lugar,https://ellugarayampe.com/,,Ecuador,-1.6770122,-80.8133571
6810603885,Hostal Los Arupos,,"Loja, Ecuador",Ecuador,-3.9915642,-79.2037437
6821212788,Hotel Sol De Aurora,,La Aurora,Ecuador,-2.0509431,-79.8813883
6821215285,Hostal Rincon Del Nomada,,,Ecuador,-0.5030718,-78.5895274
6821279395,Condominios Gladis Barato,,La Aurora,Ecuador,-2.0538371,-79.8827408
6828595561,Hostal Tomebamba,,,Ecuador,-3.2735448,-79.3147391
6839091485,Hotel Corona Real,,,Ecuador,-2.1300183,-79.8967297
6864403028,El Bambú,,,Ecuador,-0.7438968,-90.3171083
6867748692,Hotel Dinastía,,Puembo,Ecuador,-0.1765328,-78.3589717
6882185912,Niko Hosting,,Quito,Ecuador,-0.1426823,-78.4683081
6882696071,Hostería Mindo Lago,,Quito,Ecuador,-0.1465047,-78.4752097
6907160985,Hotel Majestic,,,Ecuador,-3.2572257,-79.9565804
6965036885,Yacuma Lodge,,,Ecuador,-0.9443088,-77.4504095
6967640185,Hacienda Piman,,,Ecuador,0.3963712,-78.0639902
6967683302,HOTEL SAVOY,,Quito,Ecuador,-0.1701715,-78.479245
6977145985,La Posada del Viajero,,,Ecuador,-0.930371,-78.6178636
6981465501,Hosteria Sendero,,Las Golondrinas,Ecuador,0.2896263,-78.9793103
6982750488,Hotel Penon del Oriente,,,Ecuador,-2.3045465,-78.1199874
6982851847,Ñañas Hostel,,,Ecuador,-2.9016656,-79.0028288
6991291985,La Torre,,,Ecuador,-0.4641331,-76.9890477
6991375577,Edificio yanuncay apart suites,,,Ecuador,-2.9117525,-79.0132207
7005279885,Quinta de Goulaine,,,Ecuador,0.1176188,-79.1180383
7007243142,La casa azul,,,Ecuador,-2.908772,-79.0087357
7008550791,romance,,,Ecuador,-2.200956,-79.9323692
7011528840,Reino de Quito,,Quito,Ecuador,-0.2297923,-78.5125787
7015362185,El Madrigal,,,Ecuador,-1.2846545,-78.6321483
7030375288,Orient prestige,,,Ecuador,-0.2974414,-76.8579517
7033320333,Hotel JORDAN,,,Ecuador,-0.247955,-79.1681587
7041224085,Hostal Las tejas,,,Ecuador,-1.9131124,-80.0121595
7047239987,Varadero 4,,,Ecuador,-0.186628,-78.4996393
7064402153,Chuza Longa Home,https://www.chuzalonga.com/,,Ecuador,-1.9358372,-78.7122916
7068296985,Hostería Mirasierra,,,Ecuador,-0.2860971,-78.4466431
7077810185,Buglas Guest House,,,Ecuador,-2.9917888,-78.4302805
7078615986,Hotel Ciudad Canela,,,Ecuador,-0.4746927,-76.9906917
7086498986,Hostería NJ,,,Ecuador,-1.7982021,-80.7594348
7089841585,La corona,,,Ecuador,-1.7984684,-80.7593789
7090034085,Ocean Blue Hotel,,,Ecuador,-0.8607479,-80.535236
7099048585,Hotel Velez,,,Ecuador,-2.190858,-79.889274
7099110785,Greenport Hotel,,,Ecuador,-3.2783449,-79.9420658
7099832885,Hosteria RANCHO SANTA FE,http://www.hosteriaelparaiso.com.ec,,Ecuador,0.3066568,-78.2717827
7105455315,Hotel Kampak Wasi,,,Ecuador,0.4160733,-78.1922232
7110969485,La Casa De Luis,https://encasadeluis.com/,,Ecuador,-1.3911565,-78.4106194
7133855885,Río Quijos Ecolodge,,,Ecuador,-0.3916305,-77.8164765
7147521385,Hotel Flor De Liz,,,Ecuador,-2.1863919,-79.8863469
7152795585,Hostal,,,Ecuador,0.9316972,-79.6694674
7157806185,Unihotel,,"Loja, Ecuador",Ecuador,-4.0025796,-79.2031756
7164920186,Hostal Diamante Azul,,,Ecuador,-1.4903946,-78.0067213
7170305985,Hostal Reales Tamarindos,,,Ecuador,-1.0482005,-80.4608673
7182503585,Las orquídeas de Lupe,,,Ecuador,-0.2939945,-78.5590595
7194158059,Hostal Cartagena,,,Ecuador,-0.0968668,-78.4510818
7243684485,Kuyana Lodge New,,,Ecuador,-0.9448299,-77.7620074
7245988385,,,,Ecuador,0.8906571,-79.8086677
7263731586,Hotel Espindola,,,Ecuador,0.8126048,-77.7169907
7274726385,Pepe's House Cuenca,,Cuenca,Ecuador,-2.8970167,-79.0081832
7277449585,DC1,,,Ecuador,-0.1536143,-78.4769823
7278701639,Hotel Villa Belén,,,Ecuador,-0.9868387,-77.8131021
7288647404,Hotel San Luis,,,Ecuador,-1.4898603,-78.005373
7296118485,el pacifico,,,Ecuador,-2.3079098,-78.1202957
7472234991,Residence of Turkey,,Quito,Ecuador,-0.1980846,-78.4754676
7509249817,Finca de la Vaca,https://www.fincadelavaca.com/,,Ecuador,-1.4597556,-78.1369551
7543255085,Manta zone Beach,,,Ecuador,-0.9444377,-80.7405419
7564430085,Hostería el Tisaleño,,,Ecuador,-1.3603743,-78.6489775
7601012155,Hotel Toledo,,Santa Rosa,Ecuador,-3.4477319,-79.9603314
7602625885,CALEM,https://calem-hotel-zumba.negocio.site/,Zumba,Ecuador,-4.8640845,-79.1312516
7659967385,,https://fincaheimatlos.com/,,Ecuador,-1.6174399,-77.8409802
7777431685,Hostal Aaron el ballenero,,,Ecuador,-1.5525049,-80.8092637
7808572886,Arahuana,,,Ecuador,-0.9677246,-77.8111801
7876702462,Glambu,,,Ecuador,-4.008524,-78.8744745
7878853285,Hotel Casa Santa Lucía,,,Ecuador,-1.3954166,-78.4300378
7897287550,Hosteria Vista Del Valle,https://hosteriavistadelvalle.negocio.site,,Ecuador,-3.2681368,-79.3148821
7966101785,Casa Santa Lucía,https://www.servitaxibanos.com/,,Ecuador,-1.3953791,-78.4300647
8017660911,Hostal Limón,,,Ecuador,-2.9670171,-78.431656
8017660920,Hostal Los Tayos,,,Ecuador,-2.9669059,-78.4320686
8079452019,Hotel Loma Larga,,,Ecuador,0.0271694,-78.1265432
8105250989,La Paz,,,Ecuador,-1.3395225,-78.5341677
8108805617,,,,Ecuador,-2.9112822,-79.4373386
8143388117,Hostal Toque de Sol,,,Ecuador,-2.0614593,-80.7337311
8206602917,Hacienda San Francisco,,,Ecuador,-0.3607159,-78.4170873
8235459719,Hotel Caleb,,,Ecuador,-1.3490182,-80.578844
8250407632,Hostal El Pinzón,,,Ecuador,-0.7407717,-90.3104259
8316230817,Villa Mely,https://api.whatsapp.com/send?phone=593984612126,,Ecuador,0.2917753,-78.2785548
