id_hotel,nombre,url_principal,ciudad,pais,latitud,longitud
286971351,Hotel Europeo,,,Nicaragua,12.140697,-86.2847658
298717879,Hospedaje Bosques de Bolonia,,,Nicaragua,12.1385657,-86.2885739
313630771,Crowne Plaza Managua,https://www.crowneplaza.com/cpmanagus,Managua,Nicaragua,12.1431966,-86.2740874
428518595,Estelimar,,,Nicaragua,13.0988519,-86.334955
577133799,Miraflores,,Esteli,Nicaragua,13.0935705,-86.3564249
592029849,Colonial,,,Nicaragua,12.4379636,-86.8782386
613258706,Hotel Charco Verde,http://www.charcoverde.com.ni/,,Nicaragua,11.4793291,-85.6352799
750469251,La Islita Boutique Hotel,,,Nicaragua,11.927828,-85.9515204
806528014,Hotel Juigalpa,,,Nicaragua,12.1061681,-85.371213
828504628,El Nuevo Milenio,,,Nicaragua,12.1066909,-85.3641314
828504629,Casita Country,,,Nicaragua,12.1083728,-85.3614796
828504632,Dos Aries,,,Nicaragua,12.0943791,-85.3627886
828504634,Posada La Casona,,,Nicaragua,12.0943838,-85.3622468
828504636,Masagua,,,Nicaragua,12.0946041,-85.3620268
828504651,El Regreso,,,Nicaragua,12.1069986,-85.3638132
831324401,Hotel Costa Azul,,,Nicaragua,11.510392,-85.5541678
1018766030,Hotel Ritzo,,,Nicaragua,12.1043096,-86.2626379
1095909328,Hotel Posada del Ángel,,,Nicaragua,12.1407936,-86.2801049
1095909329,Hotel El Conquistador,,Managua,Nicaragua,12.1438972,-86.2759752
1142233409,Hotel Plaza Colon,https://hotelplazacolon.com/,,Nicaragua,11.9298175,-85.9545076
1142233488,Selina Hotel,,,Nicaragua,11.9303853,-85.9544699
1142270294,Hotel Casa San Francisco,https://hotelcasasanfrancisco.com/,Granada,Nicaragua,11.9327609,-85.9528377
1144051648,Hotel con Corazón,https://www.hotelconcorazon.com/,,Nicaragua,11.9339279,-85.9535351
1144051652,Ok Corral Rooms,,,Nicaragua,11.9337809,-85.9547796
1145523006,Hotel La Calzada,,,Nicaragua,11.9301668,-85.9480333
1148163198,Hotel Casa la Luna,,,Nicaragua,11.9283038,-85.9538722
1185445481,Hacienda Merida,www.hmerida.com,,Nicaragua,11.4413879,-85.5598861
1194971386,Via Via,,,Nicaragua,12.4366851,-86.8757195
1194971388,Hostal La Clínica,,,Nicaragua,12.4332757,-86.8794233
1489546930,,,,Nicaragua,10.9720524,-84.3389775
1489547459,Hotel Villa Paraíso,http://www.villaparaiso.com.ni/,,Nicaragua,11.510741,-85.554253
1570005273,Hotel Buena Vista,,,Nicaragua,11.5129548,-85.5548722
1693131670,El Camino,,,Nicaragua,13.5627337,-86.4909894
1707844688,Tarpón River Lodge,,,Nicaragua,11.0443073,-84.4752139
1737135840,Hotel Flor de Pino,,,Nicaragua,13.6351414,-86.4799389
1737725020,Hotel Casa Barcelona,,Granada,Nicaragua,11.9233385,-85.9537605
1748771734,Hotel Brandt's,http://www.brandtshotel.com.ni/,,Nicaragua,12.1283513,-86.2628617
1748771736,Casa Naranja,https://www.hotelcasanaranja.com/,,Nicaragua,12.1206409,-86.2635194
1748811788,Brandt's,,,Nicaragua,12.1213338,-86.2673161
1748811799,Hostal Real,,,Nicaragua,12.120684,-86.2656392
1748811802,Hotel El Gran Marquez,,,Nicaragua,12.1179819,-86.2637617
1748811803,Hotel Los Robles,,,Nicaragua,12.1184843,-86.2655318
1748811805,Hotel Sol y Luna,,,Nicaragua,12.1196112,-86.2666022
1776756776,Casa San Juan,http://www.casasanjuan.net/,,Nicaragua,12.1233112,-86.2701029
1776757072,Royal Inn B&B,http://www.hotels-nicaragua.net/city/managua/hotel-royal-inn,,Nicaragua,12.1228327,-86.2713963
1776757611,Los Pinos,https://www.hotellospinos.com.ni/,Managua,Nicaragua,12.1183071,-86.2690437
1780589783,Hotel San José,,,Nicaragua,12.9216343,-85.9187723
1785289714,Gran Lago Hotel,http://www.grandhotelsnicaragua.com,,Nicaragua,11.1221773,-84.779446
1814947032,Hotel Lomas de San Thomas,https://www.facebook.com/pages/Hotel-Lomas-De-San-Thomas/215736528447091,,Nicaragua,12.9283437,-85.9081587
1819442987,Hotel La Mar Dulce,,,Nicaragua,11.9331883,-85.9598637
1848778407,Casita Sanpayo,,,Nicaragua,13.2153546,-86.110581
1884525964,Hostal Don Guillermo Bed & Breakfast,,,Nicaragua,12.927977,-85.9165267
1893877583,Hotel Papa Tara,,,Nicaragua,13.5035674,-84.2288659
1914715249,Monter,,,Nicaragua,14.0262385,-83.3835196
1929006438,Casa Grande Hotel,,,Nicaragua,12.1048732,-86.3190381
1995471147,Hotel Colonial,,,Nicaragua,13.4828996,-86.5821898
1995471311,Arena's Beach,,,Nicaragua,12.1595421,-83.064873
1995471340,Hotel Casa Canadá,,,Nicaragua,12.1674401,-83.0429701
1995471391,La Princesa de la Isla,,,Nicaragua,12.167024,-83.0706673
1995471442,Hotel Morgan,,Corn Islands,Nicaragua,12.182739,-83.0571616
2026720779,La Mariposa Escuela de Español & Eco-Hotel,,,Nicaragua,11.9501623,-86.1821991
2034338453,Raizon,,,Nicaragua,12.0236934,-86.1614292
2043141667,Pueblo Viejo,http://www.puebloviejonicaragua.com,,Nicaragua,12.0448196,-86.2569253
2092939479,Campo Royale Resort,http://www.camporoyaleresort.com,,Nicaragua,12.0350074,-86.2047024
2224245257,Magnific Rock Hotel,http://www.magnificrockpopoyo.com,,Nicaragua,11.4531937,-86.1033567
2249619862,Hotel El Jardin,www.eljardinhotel.com,,Nicaragua,11.275283,-85.8789745
2259580912,Hotel El Cielo,,,Nicaragua,12.6780991,-87.3689632
2282629617,Hotel El Rosario,,,Nicaragua,13.4830508,-86.5803823
2282631914,Hotel Mirador,,,Nicaragua,13.6235411,-86.47598
2306037923,Casa Iguana,,,Nicaragua,12.2810831,-82.9735078
2345156888,Hotel Contempo,,,Nicaragua,12.0745,-86.2252982
2345173508,Barceló Managua,http://www.barcelo.com/BarceloHotels/es_ES/hoteles/Nicaragua/Managua/hotel-barcelo-managua/descripcion-general.aspx,Managua,Nicaragua,12.0965039,-86.2634722
2407075750,Real Intercontinental Metrocentro,https://www.realhotelsandresorts.com/ni/rintercont_managua/home,Managua,Nicaragua,12.1266002,-86.264883
2410500397,Hotel Escuela Teosintal,,,Nicaragua,11.5386772,-85.6981981
2410534741,Los Altos Boutique Hotel & Residencias,,,Nicaragua,12.0963747,-86.2641739
2430666668,Hotel Melting Elefante,www.meltingelefante.com,Guasacate,Nicaragua,11.4658917,-86.1167183
2433987635,Monteristo River Lodge,https://www.montecristoriverlodge.com/,,Nicaragua,11.0232889,-84.4584986
2447053165,San Francisco,,,Nicaragua,13.3441914,-86.62156
2448397683,Hotel boutique Villa Maya,,,Nicaragua,12.0931064,-86.2334788
2448584706,Hotel Colón,,,Nicaragua,12.1226589,-86.2596033
2458946824,Elements Hotel Boutique,,,Nicaragua,12.1224778,-86.2655318
2462432678,Hotel Colonnade,,,Nicaragua,12.1189832,-86.2619386
2462599203,Globales Camino Real,https://www.globales.com/en/hotels/nicaragua/nicaragua/managua/globales-camino-real/,Managua,Nicaragua,12.1480796,-86.1855832
2463307450,Hotel Altamira,,,Nicaragua,12.1475429,-86.1944067
2472883132,Hotel RDG,,,Nicaragua,12.114731,-86.2626708
2474517649,Hotel Colibrí,https://colibrihotelmanagua.com/,,Nicaragua,12.1239641,-86.2627246
2474517650,Hotel Villa Americana,,,Nicaragua,12.1203041,-86.2634647
2475998093,Hotel Comfort,,,Nicaragua,12.1199953,-86.2551208
2488652188,La Pyrámide Hotel Restaurante,,,Nicaragua,12.1161697,-86.2689936
2488880646,Central Park,https://centralparkhotel.weebly.com/,Managua,Nicaragua,12.1212242,-86.2585094
2488880649,Hotel Internacional,,,Nicaragua,12.1153093,-86.2548432
2488880654,Hotel le Chateau,,,Nicaragua,12.1183077,-86.2626156
2496228867,Hotel Mi Roca HMR,,,Nicaragua,12.1286804,-86.2597147
2496230350,Hotel Ideas de Mamá,http://www.hotelideasdemama.com.ni,,Nicaragua,12.1287851,-86.2579956
2499510721,Ángel Azul hotel boutique,,,Nicaragua,12.1042215,-86.2620091
2505154024,Hotel Mozonte,https://www.hotelmozonte.com/,Managua,Nicaragua,12.1369559,-86.2797693
2535955975,Los Cardones Surf Lodge,https://loscardones.com/,,Nicaragua,11.8992712,-86.6083133
2539247442,La Posada Ecologica Abuela,,,Nicaragua,11.9423672,-86.0440649
2539247462,Hotel Brial Plaza,https://plus.google.com/102085351801826893845/about?gl=ni&hl=es,Managua,Nicaragua,12.0976335,-86.2465596
2551919967,Selva Negra,https://www.selvanegra.com/,,Nicaragua,12.9989267,-85.9097774
2560871584,Apoyo Resort & Spa,http://www.apoyoresort.com,,Nicaragua,11.918147,-86.0579503
2573653022,Hotelito Oasis,,,Nicaragua,12.358273,-87.0202971
2573653023,Olazul Hotel,,,Nicaragua,12.3675856,-87.0309393
2573653024,Playa Roca Hotel Restaurant Bar,,,Nicaragua,12.3603404,-87.0230214
2580461776,Roca Dura,,,Nicaragua,13.5887304,-86.4728425
2581913739,Hotel Las Américas,,,Nicaragua,13.0795872,-86.3548322
2581913745,Hotel Puro Estelí,,,Nicaragua,13.0942407,-86.354456
2582748137,Apartmentos Freeman,,Esteli,Nicaragua,13.0870069,-86.3559908
2605452958,San Simian,,,Nicaragua,11.9110279,-86.0555066
2610439700,Mango Rosa Resort,,,Nicaragua,11.2962489,-85.8919586
2610439704,Selina Maderas,https://www.selina.com/nicaragua/maderas,,Nicaragua,11.2912917,-85.9014058
2618903677,Parque Maritimo El Coco,,,Nicaragua,11.1614461,-85.8029253
2620563413,Bridget's,,,Nicaragua,12.285357,-82.9794059
2620563415,Carlito's Sunrise Paradise,,,Nicaragua,12.2863405,-82.9752503
2620563416,Casa Sunrise,http://casasunrise.com/,,Nicaragua,12.3015778,-82.9839284
2620563418,Los Delfines,,,Nicaragua,12.2832109,-82.9779996
2620563419,Derek's Place,https://www.dereksplacelittlecorn.com/,,Nicaragua,12.2998658,-82.9786926
2620563421,Dobedos,http://www.dobedos.ca/,,Nicaragua,12.3011937,-82.9853661
2620563422,Elsa's Place,,,Nicaragua,12.2856015,-82.9750066
2620563423,Ensueños,https://www.ensuenos-littlecornisland.com/,,Nicaragua,12.3011003,-82.9828195
2620563424,Farm Peace and Love,https://www.farmpeacelove.com/,,Nicaragua,12.3013949,-82.9810245
2620563426,Grace's Cool Spot,https://gracescoolspot.com/,,Nicaragua,12.2859694,-82.9751192
2620563430,Little Corn Island Beach and Bungalow,https://littlecornbb.com/,,Nicaragua,12.2887643,-82.9761011
2620563431,Lobster Inn,,,Nicaragua,12.2846156,-82.9789066
2620563441,Three Brothers,,,Nicaragua,12.2869449,-82.9808378
2621753370,Altamira Inn,,,Nicaragua,12.1184761,-86.2565285
2623008574,Hotel Camp Real,,,Nicaragua,12.0656477,-86.2116939
2623011991,Hostal San Agustín,,,Nicaragua,12.1198516,-86.257894
2632954610,,,,Nicaragua,11.9037449,-86.0945592
2633153287,La Posada,,,Nicaragua,12.8363651,-85.460738
2633153293,Hotel Las Brisas de Quirragua,,,Nicaragua,12.8374949,-85.4560603
2640194047,Hotel Flor de Sarta ***,,,Nicaragua,12.4402385,-86.8785982
2640244042,Hotel Central,,,Nicaragua,11.5639387,-85.5785301
2640244043,El Viejo Jade,,Moyogalpa,Nicaragua,11.5408724,-85.697664
2641375963,La Vista - Hotel & Restaurante,http://hotellavistanicaragua.com,Chichigalpa,Nicaragua,12.573361,-87.0259622
2666735815,Pájaro Azul,,,Nicaragua,11.91646,-86.0577746
2666735821,Hotel Central,,,Nicaragua,11.9782104,-86.096037
2666735822,Hotel Regis,,,Nicaragua,11.9770491,-86.0959343
2667747962,Casa Blanca,,,Nicaragua,11.9099739,-86.2018782
2671569242,Hotel Ometepetl,http://www.hotelesenometepe.com/,Moyogalpa,Nicaragua,11.5402596,-85.700193
2673988871,Aqua Oceanfront Resort,https://aquanicaragua.com/,,Nicaragua,11.3817162,-86.0290984
2673992855,Hotel Brio,https://www.hotelbrio.com/,,Nicaragua,11.3908671,-86.0268728
2675343772,Mukul Resort,https://mukulresort.com/,,Nicaragua,11.3737767,-86.0106051
2675443057,Hacienda Iguana Golf & Beach Resort,https://www.haciendaiguana.com/,,Nicaragua,11.4139496,-86.0519803
2676352460,The Surf Sanctuary,https://thesurfsanctuary.com/,,Nicaragua,11.4495052,-86.0868682
2690538261,Hotel Las Cabañitas,,,Nicaragua,12.1228058,-86.2710104
2702189753,Hotel Castillo,,AltaGracia,Nicaragua,11.5645933,-85.5788333
2702189762,Posada Cabrera,,,Nicaragua,11.5654557,-85.5789567
2705197199,The Landing,http://www.thelandinghotel.com/,Moyogalpa,Nicaragua,11.539256,-85.7009939
2705197205,The American Café & Hotel,http://www.americancafeandhotel.com/,Moyogalpa,Nicaragua,11.5404206,-85.6995353
2705197208,Hotelito Aly,http://www.hotelitoaly-ometepe.blogspot.com/,Moyogalpa,Nicaragua,11.541058,-85.6989175
2705197210,Casa Familiar,https://www.facebook.com/pages/isla-de-ometepe-Casa-familiar/192108497502910,Moyogalpa,Nicaragua,11.5401954,-85.6982236
2705197212,Hotel Nahuatl,http://nahuatlometepe.blogspot.com/,,Nicaragua,11.5389889,-85.6982722
2705197222,Hospedaje Central,http://hostelometepe.com/,,Nicaragua,11.5393174,-85.6976745
2705197223,Yogi's Hostel,https://www.facebook.com/pages/Yogis-Hostel/141810222642008,,Nicaragua,11.5386706,-85.697352
2706634809,El Ceibo,https://www.elceibomuseos.com/,,Nicaragua,11.4795153,-85.6725927
2707310055,Finca Venecia,http://www.fincavenecia.com/,San Jose del Sur,Nicaragua,11.4810192,-85.6396237
2707310057,Posada Chico Largo,https://www.facebook.com/posadachicolargo,San Jose del Sur,Nicaragua,11.4813407,-85.6401528
2707310064,Quinta Linda Vista,https://www.facebook.com/QuintaLindaVista,,Nicaragua,11.4999922,-85.6285416
2707998379,Hotel Rose,,,Nicaragua,12.6106215,-87.0777001
2713190050,Hotel Flores,,,Nicaragua,12.1484311,-86.1935826
2734772225,Hotel Yadash,,,Nicaragua,12.6712691,-83.5449331
2735013494,Table Point,,,Nicaragua,12.475035,-83.7363522
2735457697,Casa Blanca,,Laguna de Perlas,Nicaragua,12.3408312,-83.6746579
2735457702,Green Lodge,,Pearl Lagoon,Nicaragua,12.3413399,-83.670703
2735457703,Hotelito Bella Vista;Western Union,,Laguna de Perlas,Nicaragua,12.3423028,-83.6708791
2735457720,Sweet Pearly,,,Nicaragua,12.3416967,-83.670935
2735620684,Gran Hotel Anabas,,,Nicaragua,12.0119075,-83.7614677
2735620685,Hotel y Restaurante South Atlantic II,,,Nicaragua,12.0120565,-83.7602266
2735620686,Hotel Claudia,,,Nicaragua,12.0109111,-83.7601298
2735620687,Hotel Marda Maus,,,Nicaragua,12.0109286,-83.7600151
2735620698,Mini Hotel y Cafetín Central,,,Nicaragua,12.0119086,-83.7609914
2741494467,Hotel Soza,,,Nicaragua,12.9242955,-85.9198836
2756538675,Hotel El Ideal,,Matagalpa,Nicaragua,12.9306807,-85.9193642
2766074115,Best Western Las Mercedes,https://www.lasmercedes.com.ni/,Managua,Nicaragua,12.1459718,-86.1712584
2780671158,Hotel Holy,,,Nicaragua,12.1403577,-86.2855511
2782561789,Hotel Campo Real,,,Nicaragua,12.0812564,-86.2253613
2782561835,Hotel Casa Linda,,,Nicaragua,12.1416372,-86.2779111
2782561853,Hotel Euro,,,Nicaragua,12.1486929,-86.2751257
2782561868,Hotel San Luis,,,Nicaragua,12.1145438,-86.2528682
2782561948,Santo Domingo Imperial,,,Nicaragua,12.0925764,-86.2372726
2823077983,Hotel Mariposa,https://hotelmariposaleon.com/,,Nicaragua,12.4319574,-86.9063534
2880202557,Suyapa Beach Hotel,http://www.suyapabeach.com,,Nicaragua,12.3595208,-87.0223539
2884656110,Jicaro Island Ecolodge,https://www.jicarolodge.com/,,Nicaragua,11.8860731,-85.9016092
2886484740,Holiday Inn,https://www.holidayinn.com.ni/,Managua,Nicaragua,12.1240225,-86.27981
2888027623,Executive Managua,http://www.executivemanagua.com/,Managua,Nicaragua,12.1375046,-86.2763362
2888333667,Internacional,http://www.hotelinternacionalmanagua.com/,Managua,Nicaragua,12.1265266,-86.259913
2892704329,Hotel La Ceiba,,,Nicaragua,11.8784441,-85.9005211
2896376029,Hotel La Riviera,,,Nicaragua,13.0928011,-86.3594546
2900273275,Casa Lucia,,,Nicaragua,11.9342563,-85.9510275
2933720400,Colón,,,Nicaragua,13.6267708,-86.4756871
2933720410,Mi Hotelito,,,Nicaragua,13.6283185,-86.4762359
2962658071,Hotel Marítimo,,,Nicaragua,12.3734962,-87.0367453
2962697356,Hotel Amy,,,Nicaragua,12.1589971,-84.2209415
2962901844,Hotel Boutique Los Altos,,,Nicaragua,13.0897334,-86.3499374
2995051549,Terrasol,http://www.hotelterrasol.com/,Granada,Nicaragua,11.9282497,-85.9573021
2996187604,Condo Hotel Xalteva,http://hotelxalteva.com/,Granada,Nicaragua,11.9267663,-85.9582338
2996187607,Casa de Alto,http://www.hotelcasadealto.net/,Granada,Nicaragua,11.9328074,-85.9567079
2999089376,Palacio Real Granada,http://hotelpalaciorealgranada.com/,Granada,Nicaragua,11.9461089,-85.9819667
2999089378,Dolphin Guest House,,,Nicaragua,11.9453926,-85.9760491
2999089379,Los Patios,https://www.lospatiosgranada.com/,Granada,Nicaragua,11.9329194,-85.9489668
2999089380,Casa Grande,,Granada,Nicaragua,11.9289359,-85.9563117
3088026738,La Sombra Ecolodge,https://www.lasombraecolodge.com/,,Nicaragua,13.1823332,-85.7543731
3103925768,Hostal Buongiorno Principessa,,,Nicaragua,12.9289994,-85.9152721
3103925788,Hotel Villa Hermosa,http://hotelvillahermosamatagalpa.com,,Nicaragua,12.9317926,-85.9205409
3103925791,Hotel Fountain Blue,,,Nicaragua,12.9323208,-85.9202112
3114052680,Hotel Bosque Las Nubes,,,Nicaragua,11.9903877,-86.2968346
3143442527,Hotel G & G,,,Nicaragua,12.1731544,-83.0625567
3143484181,Hotel Flor,,,Nicaragua,12.1749871,-83.0629738
3143490453,Hotel Paraíso,,,Nicaragua,12.1685529,-83.065951
3143503117,Picnic Center,,,Nicaragua,12.1575431,-83.0651906
3143536505,Sunrise Hotel,,,Nicaragua,12.1676575,-83.0430932
3143549746,Fisher Cave,,,Nicaragua,12.1762748,-83.0642184
3143598866,Hotel Panorama,,,Nicaragua,12.1821094,-83.0612324
3143599377,Beach View Hotel,,,Nicaragua,12.1821305,-83.0593135
3143599379,Hotel Cabanas Vientos del Norte,,,Nicaragua,12.183968,-83.0548291
3146067556,Lakia Tara,https://sites.google.com/site/ecoturismocostacaribenicaragua/,,Nicaragua,12.4028781,-83.7218372
3146557163,Kahka Creek,https://sites.google.com/site/ecoturismocostacaribenicaragua/reserva-kakha-creek,,Nicaragua,12.6674532,-83.7222819
3146569363,Victoria Place,https://sites.google.com/site/ecoturismocostacaribenicaragua/sandy-bay,,Nicaragua,12.9618502,-83.5269229
3157327776,Hotel Cortijo 2,,,Nicaragua,14.0300634,-83.3789413
3157376905,Hotel Moncada,,,Nicaragua,14.0280145,-83.3815694
3157376913,Liwa Mairin,,,Nicaragua,14.0266265,-83.3809021
3158764555,Hotel Caribe,,,Nicaragua,14.0330452,-83.386563
3163194739,Hotel Crisvi,,,Nicaragua,14.0344221,-83.4057595
3163834775,Sweet Dreams,,,Nicaragua,14.0339162,-83.3836482
3163872524,Hotel Sandy Bay,,,Nicaragua,14.0351806,-83.3774916
3211781334,Casa Mateo Mission's House,http://casamateomissionshouse.vpweb.com/,,Nicaragua,11.8487034,-86.2004974
3239800756,Toro Surf,,,Nicaragua,11.4733555,-86.1273662
3252806753,La Comunidad,,,Nicaragua,11.1736033,-85.0004935
3271950959,Morgan's Rock,https://www.morgansrock.com/,San Juan del Sur,Nicaragua,11.3062109,-85.9190671
3309939561,El Internacional,,Granada,Nicaragua,11.9345182,-85.9586303
3310100512,Lara's Planet,http://www.hotellarasplanet.com/es/,El Castillo,Nicaragua,11.0212384,-84.3998431
3310100513,Hotel Posada del Rio,,El Castillo,Nicaragua,11.0170536,-84.3954616
3343072722,Hotel Playa Santa Martha,,,Nicaragua,11.4829912,-85.6501146
3375158997,Hostal Marifer,,,Nicaragua,13.7232855,-86.1369827
3413714218,Casa de Huéspedes Campbell,,Bluefields,Nicaragua,12.0090409,-83.7638021
3413714219,Hotel Escuela BICU,,,Nicaragua,12.0135672,-83.7681999
3413714220,Hotel Isleño,,,Nicaragua,12.0126224,-83.7632735
3413716651,Caribbean Dream,,,Nicaragua,12.0105611,-83.7604532
3439500111,Casona Colonia,,,Nicaragua,12.4395293,-86.8763306
3455071146,Cabinas Leyko,,,Nicaragua,11.1238731,-84.779867
3465549312,Casa Amalia,,,Nicaragua,11.9272093,-85.9539902
3497267230,Grand River Lodge,,,Nicaragua,11.0840382,-84.5473402
3498335976,Yemaya Island Hideaway & Spa,,,Nicaragua,12.301517,-82.9855313
3498356923,The Lighthouse Hotel,,,Nicaragua,12.2902227,-82.9810597
3504135782,The Inn at Rancho Santana,https://ranchosantana.com/rental_types/ocean-inn/,,Nicaragua,11.441725,-86.0853713
3596978086,HC Liri Hotel,,,Nicaragua,11.2603822,-85.8746452
3601425646,Mirador Suites & Lounge,,,Nicaragua,12.0901657,-86.2453303
3646762418,Hotel Perla Fina,,,Nicaragua,12.3856188,-85.5153661
3672623620,Airport X Managua Hotel,http://www.airportxmanagua.com,Managua,Nicaragua,12.1509359,-86.1777963
3762133826,Pensión Valdovinos,,,Nicaragua,13.360063,-86.3982924
3762133827,Hotel la Granja,,,Nicaragua,13.3600957,-86.397329
3861633994,Hotel Finca Santo Domingo,,,Nicaragua,11.5121763,-85.5546063
3861633997,Hotel El Almendro,,,Nicaragua,11.5688789,-85.5793057
3861633998,Hotel El Bosque,,,Nicaragua,11.5107004,-85.5547178
3865979948,Hacienda Merida,www.hmerida.com,,Nicaragua,11.4388231,-85.5561393
3865979949,Hotel Omaja,www.hmerida.com,,Nicaragua,11.4391402,-85.5576032
3865979950,Finca Montania Sagrada,,Merida,Nicaragua,11.4439907,-85.5567154
3867260608,Hotel Ecológico Tierra Blanca,http://www.tierrablancaometepe.com/,,Nicaragua,11.5691355,-85.6900587
3877517017,Hotel Dario,,,Nicaragua,11.9302667,-85.9516101
3883826373,Playa Hermosa Beach Hotel,,,Nicaragua,11.2060176,-85.8350778
3889584164,El albergue,,Esteli,Nicaragua,13.0940957,-86.3572149
3896035933,Apartamentos Dora,,bluefields,Nicaragua,12.0057492,-83.7701554
3971789078,Guasacate Surf,,Guasacate,Nicaragua,11.4647266,-86.114834
3971917544,La Jolla de Guasacate,www.lajollahotelnica.com,,Nicaragua,11.481575,-86.1161145
3972398936,Bocana Surf,,Guasacate,Nicaragua,11.4643993,-86.1135499
3972398937,Big Surf House,,Guasacate,Nicaragua,11.4661199,-86.1167243
3972398938,El Club del Surf,,Guasacate,Nicaragua,11.4651066,-86.1152111
3972398940,La Tica No 2,,Guasacate,Nicaragua,11.4663852,-86.1152441
3972398941,Las Plumerias,https://lasplumerias.com/,,Nicaragua,11.4882455,-86.1547673
3972398942,Olas Verdes,,,Nicaragua,11.4725394,-86.126482
3972398943,Popoyo Loco,,Guasacate,Nicaragua,11.4643993,-86.1140501
3972398944,Popoyo Surf Lodge,,,Nicaragua,11.478813,-86.127014
3972398945,Punta Teonoste,https://www.puntateonoste.com/,,Nicaragua,11.4818286,-86.1500902
3972398946,The Sunset Villa,,Guasacate,Nicaragua,11.466196,-86.1169604
3972398947,Villa Jiguelite,,,Nicaragua,11.4448756,-86.0890118
3984555100,Nicovale,,San Juan Del Sur,Nicaragua,11.2477936,-85.8725955
3984555103,Posada Bahía Azul,,,Nicaragua,11.2508692,-85.8699046
3994435396,HulaKai Hotel,,,Nicaragua,11.2928525,-85.9039025
3999937941,Villa Aller,,,Nicaragua,11.5124058,-85.5554027
4053900836,,,,Nicaragua,11.9963541,-83.6903914
4064515335,Hotel Diana,,,Nicaragua,13.0553503,-86.5895372
4103046297,Hostal Familiar,,,Nicaragua,13.0853508,-86.3537049
4108844614,Leo y Pinita,,Leon,Nicaragua,12.43373,-86.8752934
4111170490,Barca de Oro Hostal Restaurante,https://www.barcadeoro.com/,,Nicaragua,12.3598036,-87.0191171
4111509391,Hotel Casa Isa,,Bluefields,Nicaragua,12.0051732,-83.7686751
4111509392,Hotel Luna,,,Nicaragua,12.0969107,-85.36452
4115229590,D' Santos,,,Nicaragua,11.8617069,-86.2142931
4120102291,Redwood Beach Resort,http://www.redwoodbeachresort.com/,,Nicaragua,12.8362162,-87.5845671
4151605592,Hospedaje Central,,,Nicaragua,12.161336,-84.2201846
4157927401,Casa Grande Hotel Hacienda,,,Nicaragua,11.5844427,-85.9032063
4181512893,Hotel Las Estrellas,,,Nicaragua,12.3867448,-85.5042969
4183730947,Hotel Restaurante El Príncipe,,Rivas,Nicaragua,11.4393408,-85.8210897
4192290058,Hotel Alcons,,,Nicaragua,12.9210651,-85.9290357
4210483190,Buena Vista Surf Club,https://www.buenavistasurfclub.com/,,Nicaragua,11.2942502,-85.9061206
4213109043,Hotel y Restaurante Summer Masachapa,,,Nicaragua,11.784191,-86.5167884
4220145111,Hotel bar y restaurante Vista,,,Nicaragua,11.7837995,-86.5164873
4226753990,Casa Romano,,,Nicaragua,11.2522994,-85.8717927
4227086689,Sabalos Lodge,,,Nicaragua,11.0357054,-84.4680666
4229410304,Hotel Las Pérgolas,,,Nicaragua,12.3897227,-85.5079096
4231384791,Hotel El Porvenir,,,Nicaragua,11.4830528,-85.5366828
4232226835,Hospedaje San Miguel,,,Nicaragua,13.085281,-86.3520312
4243408314,Casa Romantica,,,Nicaragua,11.9340986,-85.9520246
4259736389,Hostal Duarte,,,Nicaragua,13.3029742,-86.1846495
4266251989,San Cristóbal,,,Nicaragua,12.4379491,-86.8631376
4268380704,Casa de mi Pueblo,,,Nicaragua,13.3062795,-86.1856494
4271835815,Casa Abierta,,,Nicaragua,12.433143,-86.8778786
4286609391,Doña Celia y los Colombianos,,,Nicaragua,13.0937759,-86.0019399
4287034691,Hotel Blanco,,,Nicaragua,12.8872091,-86.5405683
4291964896,White,,,Nicaragua,12.9236949,-85.9190871
4306152411,Hotel Herrera,,,Nicaragua,13.303633,-86.186667
4309440090,Hotelito Dulce Mareas,https://www.facebook.com/dulcemareas,,Nicaragua,12.3589912,-87.0194986
4316549890,Sweet Dream,,,Nicaragua,12.1767809,-83.064653
4341905465,Ecolodge Carazo,http://www.ecolodgecarazo.com/habitaciones.php,Diriamba,Nicaragua,11.8695038,-86.2383353
4368585890,Hotel O'Viedo,,,Nicaragua,12.4328495,-86.8790727
4374956290,La Posada de Don Eduardo,,,Nicaragua,11.9893969,-86.0954117
4378196495,Hotel Conny,,,Nicaragua,13.0960525,-86.0047357
4381639190,Gran Pacifica Hotel,https://www.granpacifica.com,,Nicaragua,11.913031,-86.6171198
4381753391,Gran Pacifica Hotel,https://www.granpacifica.com,,Nicaragua,11.9134215,-86.6173869
4396908690,Hotel Margarita 2,,,Nicaragua,14.02906,-84.6006918
4396912389,Hotel Margarita 1,,,Nicaragua,14.0290963,-84.600194
4396923690,Hotel San Rafael,,,Nicaragua,14.0297986,-84.606582
4414168189,Hotel La Posada del Arcángel,https://www.hotellaposadadelarcangel.com,,Nicaragua,12.1401124,-86.2786938
4415716889,Hotel Campestre,,,Nicaragua,13.102024,-86.3573404
4426933392,Balcón Real,,,Nicaragua,12.1499616,-86.1903405
4427753504,Hotel los Rizo,,Jinotega,Nicaragua,13.091924,-86.0037685
4428023737,Hotel Brumas,,Jinotega,Nicaragua,13.0880808,-86.0025063
4440873489,Estancia Santa Rosa,,,Nicaragua,12.4272899,-86.8655085
4481791297,Hotel Stad,,,Nicaragua,11.9346013,-85.95612
4487730363,Lodge at Long Bay / Treehouse,,,Nicaragua,12.1603433,-83.0533802
4487809489,Hotel Bellavista,,,Nicaragua,12.169286,-83.0660117
4491546189,Hotel Cassandra,,,Nicaragua,11.1259805,-84.7776915
4509161592,Hotel Ticomo,,,Nicaragua,12.1058017,-86.3130474
4510749990,Mama Sara's House,,,Nicaragua,11.2521259,-85.8715426
4517992419,Hotel Magic Night,,,Nicaragua,12.1635894,-84.2253743
4518299931,Hotel Oasis,,,Nicaragua,12.16084,-84.220295
4538714845,,,,Nicaragua,13.0878911,-85.997772
4538714848,,,,Nicaragua,13.0885024,-85.998534
4549837589,Hotel Brisas del Mar,,,Nicaragua,12.738439,-87.446862
4549837689,Montys Beach Lodge,,,Nicaragua,12.736703,-87.4448804
4554705990,TZolkin,,,Nicaragua,12.9675091,-86.2361293
4557604124,Auto hotel Las Lomas,,,Nicaragua,12.1558822,-86.24343
4564014389,Hotel y restaruante Costa Verde,,,Nicaragua,12.1628083,-84.2190996
4567266026,Estancia Don Francisco,,,Nicaragua,13.0954969,-86.0018747
4567266029,Hotel Jinotega,,,Nicaragua,13.0958548,-86.0011881
4569929589,Hotel Cristian,,,Nicaragua,14.029025,-84.5960804
4574449890,Hostal Miraflores,,,Nicaragua,11.5096445,-85.5536704
4580447393,Hotel Estrella,,,Nicaragua,11.2529762,-85.8722644
4581832341,,,,Nicaragua,12.4454653,-86.8730964
4595638290,Hostal poco a poco,,,Nicaragua,12.4370102,-86.8818173
4596648891,Hotel Casitas Pacific,,,Nicaragua,11.4663708,-86.1170806
4607188289,Rual's hôtel,,,Nicaragua,13.4806491,-86.5803759
4619617989,Hospedaje Los Escapados,https://www.losescapadosecocabins.com/,,Nicaragua,12.1824781,-83.0391936
4619843875,Big fish guesthouse and cafe,,,Nicaragua,12.185217,-83.0475057
4620795992,Big Fish guesthouse and cafe,,,Nicaragua,12.185136,-83.0478638
4637408297,Hospedaje Vanessa,,,Nicaragua,14.7414337,-83.9710023
4638802589,Hotel Colonial Granada,,,Nicaragua,11.9307731,-85.9545696
4644278790,El chino,,,Nicaragua,13.3786163,-86.4800848
4644280791,Hostal Clínica y Spa Natural Place,https://facebook.com/HCSNaturalPlace,,Nicaragua,12.6268348,-87.1314963
4673248489,Rhieni,,,Nicaragua,12.9331828,-85.2226582
4677481889,Casa San Miguel,https://casasanmiguel.com/,,Nicaragua,11.9738471,-86.0895896
4689094193,Bello Horizonte,,,Nicaragua,12.147266,-86.233092
4690426491,Don Frank,,,Nicaragua,11.122439,-84.7769737
4690426492,Cabañas Caiman,http://www.cabanascaimanlosguatuzos.com,,Nicaragua,11.0318959,-85.0537991
4690434989,Seledith,,,Nicaragua,11.1223405,-84.7789643
4692965389,Hotel Paso Real,,,Nicaragua,13.0474521,-86.9033207
4694351389,Hotel Alaska,,,Nicaragua,13.0152292,-86.8866387
4694352289,Farallones Hotel,,,Nicaragua,12.6304294,-87.1179699
4695937289,Hotel El Portal de 1610,,,Nicaragua,12.4352092,-86.882885
4695937489,Hotel El Convento Entrada,,,Nicaragua,12.4356106,-86.8818951
4696357293,Hotel Los Balcones,,,Nicaragua,12.4359081,-86.8758656
4696435189,Hotel Leon del sol,,,Nicaragua,12.4375773,-86.8747893
4696518696,Posada Doña Blanca,,,Nicaragua,12.4383274,-86.8795208
4696520393,Hotel Azul,,,Nicaragua,12.4376803,-86.8787048
4701473799,Hotel Yorling E&E,,,Nicaragua,13.9197343,-86.1276466
4702509390,Costa Azul,,,Nicaragua,11.1261886,-84.7776717
4702509489,Hospedaje Familiar,,,Nicaragua,10.9467605,-83.7314708
4717131793,Hotel Bella Vista,,,Nicaragua,13.0684097,-86.3492726
4723311191,NEKUPE (CIELOS Y PRADERAS),,,Nicaragua,11.7566188,-86.0529141
4725243698,Los chinitos,,,Nicaragua,13.7328354,-84.7766918
4725249290,Amador Flores,,,Nicaragua,13.7324569,-84.7773241
4725262090,El bosque,,,Nicaragua,13.7175343,-84.7730555
4727125090,Hostal,,,Nicaragua,13.0810174,-86.3561408
4733097161,Hostal Ulua,,,Nicaragua,13.0847129,-86.3529647
4738131022,Hotel Cubanica,,,Nicaragua,12.4121638,-86.6245558
4738371521,,,,Nicaragua,12.1012981,-85.3675201
4744441521,Hotel Katy's,,,Nicaragua,12.8874702,-86.5380643
4763201023,Hotel & Restaurante Jackson,,,Nicaragua,13.5655817,-86.0223701
4767139426,Terraza de Meme,,,Nicaragua,12.4395234,-86.8831955
4769477321,Hotelito El Nicarao,,,Nicaragua,12.9185975,-85.9267813
4777964888,La Punta Resort,,,Nicaragua,11.5123673,-85.7153099
4846731923,Hospedaje santa ana,,,Nicaragua,11.1307059,-84.7750751
4897584621,Buffet Don Chaco,https://www.hotelhaciendasanpedro.com/web,,Nicaragua,11.9070509,-86.2041074
4906929921,El Punche Lodge,,,Nicaragua,12.4028518,-87.0779994
4907651921,Palacios,,,Nicaragua,13.0845994,-85.9938952
4938989722,Hostal Moderno,,,Nicaragua,13.0903179,-86.355054
4942463010,El Pital Chocolate Paradise,,Madronal,Nicaragua,11.4918455,-85.5237557
4942518224,Hotel Ensueño,,,Nicaragua,13.9290193,-84.4073403
4960763587,Hotel Casa Antigua,,Granada,Nicaragua,11.9279852,-85.9579676
4998931631,Las Miradas,www.hotellasmiradas.com,,Nicaragua,12.1064043,-85.3576431
5004069221,Isla Bonita,,,Nicaragua,11.4522842,-85.5667437
5008079222,,,,Nicaragua,11.3923637,-86.0332422
5008079422,Amarillo del Mar,,,Nicaragua,11.39206,-86.0331501
5008543821,Salty's,,,Nicaragua,11.3892329,-86.0322561
5012831525,Buena Vista,,,Nicaragua,11.3934639,-86.0346832
5012831527,,,,Nicaragua,11.3936489,-86.0339029
5014463122,Hostal Los Pececitos,,,Nicaragua,11.1741661,-85.0042646
5018650127,Santiago de los caballeros,,,Nicaragua,12.4405912,-86.8810243
5039803780,Hotel Casa Blanca,,,Nicaragua,13.7199988,-86.1355281
5043172006,Santa Lucía,,,Nicaragua,11.124492,-84.7789847
5049813928,Fundarpal,,,Nicaragua,13.4568914,-86.4049917
5051945744,La Arboleda,,,Nicaragua,12.1242495,-86.3136742
5056996522,,,,Nicaragua,11.2442086,-85.8758755
5062372723,"Hostal Familiar ""Punta Gorda""",,,Nicaragua,12.1599055,-84.217604
5062448643,Surf Ranch Popoyo,,,Nicaragua,11.4892542,-86.1535186
5082797421,Hotel Familiar,,,Nicaragua,11.9118105,-86.0746282
5082797921,Hostal Calle Real,,,Nicaragua,11.911531,-86.0745101
5084725422,Hotel La Pérgola,,,Nicaragua,11.9290076,-85.9501522
5110110822,Hotel Atlántico,,,Nicaragua,12.1512278,-86.2427766
5114298221,,,,Nicaragua,12.0987787,-85.3775149
5117253523,,,,Nicaragua,12.4953971,-84.8183335
5121105639,Hotel Victoria,,,Nicaragua,13.6248775,-85.8231486
5121117950,Hotel Central,,,Nicaragua,13.6204947,-85.8178217
5144071521,El Ejecutivo.,,,Nicaragua,12.1069372,-85.365844
5144071522,Hostal Lory's Place,,,Nicaragua,14.0410697,-83.3965998
5181201023,OASIS,,,Nicaragua,11.9276443,-85.9557665
5192586221,Cielos y praderas,,,Nicaragua,11.7012383,-86.0407984
5198152323,hospedaje solidaridad de los tres rios,,,Nicaragua,12.1616681,-84.221843
5211089396,Motel,,,Nicaragua,12.4328144,-86.8744832
5215249365,Hostal Caracolito,,,Nicaragua,12.3620926,-87.0234965
5215249370,Hostal El Belga Loco,,,Nicaragua,12.3673133,-87.0308426
5220719121,El Mesón,,,Nicaragua,13.0942569,-86.3558938
5238607694,Southern nights,,,Nicaragua,11.4593729,-85.7927375
5240178621,Hospedaje Dulce Sueños,,,Nicaragua,11.1228747,-84.777019
5256584996,Costa Rica,,,Nicaragua,12.0112724,-83.7618054
5289863723,Hotel Baez,,,Nicaragua,13.7338066,-84.7773551
5310695723,Thd big drop,,,Nicaragua,11.2924926,-85.9055783
5315610525,Costa Maya,,,Nicaragua,12.3699063,-87.0341966
5319550522,Hotel La Posada del Sol,,,Nicaragua,11.928671,-85.9498695
5324201823,Casa de la Esperanza,,,Nicaragua,12.4274719,-86.8732151
5365109561,Mayapa,,,Nicaragua,12.4112382,-86.8613177
5386783226,Casa Robleto masaya,,,Nicaragua,11.9768514,-86.0971953
5397689891,Airport Inn Managua,,Managua,Nicaragua,12.1509839,-86.1774691
5427774754,Bar Hote Charlie,,,Nicaragua,12.6592607,-87.166832
5427774755,Hôtel Jerusalen,,,Nicaragua,12.2674379,-86.5656204
5427839730,Casa Cubana,,,Nicaragua,11.9308548,-85.9607769
5436264021,Playa Tesoro,https://playatesoro.com/,,Nicaragua,12.2272128,-86.8083638
5436392609,Hotelito Casa Vieja,,,Nicaragua,12.438722,-86.8742991
5466053221,Hotelito Nicarao,,,Nicaragua,12.9206269,-85.9239911
5471864023,Hotel Sobalvarro,https://www.facebook.com/hotelsobalvarro/,,Nicaragua,12.4723495,-85.6596773
5481696951,American Color's,,,Nicaragua,12.1465126,-86.2648477
5481830725,"Hotel ""El Salvador""",,,Nicaragua,12.148807,-86.2541126
5492253921,La Palmera,,,Nicaragua,13.1432114,-85.7344529
5514129069,Casa Tiscapa,https://casatiscapamanagua.business.site/,Managua,Nicaragua,12.1399779,-86.2749407
5514946422,Playa Tesoro,https://playatesoro.com/,,Nicaragua,12.2229178,-86.8044925
5517518022,Yalta's Inn,,,Nicaragua,11.4649794,-86.1149487
5517522728,Wild Waves Surf-House,,,Nicaragua,11.4656284,-86.1155955
5536605722,La Finca,,,Nicaragua,12.4666991,-86.8653421
5543281123,Hotel Jomakas,,,Nicaragua,12.4967384,-84.8160713
5550315322,Hotel Internacional,,,Nicaragua,13.0799377,-86.352605
5551564015,Hostal San José,,,Nicaragua,13.4858439,-86.5812897
5564104692,Hotel Las Marías,,,Nicaragua,11.2549345,-85.8655492
5572213524,Polayan,,,Nicaragua,12.6221266,-87.1275259
5572314221,Sinai,,,Nicaragua,13.47895,-86.582599
5597409489,Central El Quinto,,Bluefields,Nicaragua,12.0123553,-83.7632477
5627146822,Lucy's Hostal,,,Nicaragua,11.9289001,-85.9544637
5645960817,Casa Fausto,,,Nicaragua,13.4469847,-86.6887539
5652728028,Erika’s guesthouse,,,Nicaragua,12.5537977,-83.7138344
5652728031,Hotel Doña Luisa,,,Nicaragua,12.1599901,-84.2218535
5695553261,Hotel Doña Angélica,,San Miguelito,Nicaragua,11.4052429,-84.9006496
5790236806,Hotel Aguilar,,,Nicaragua,11.6862586,-84.4614004
5842669106,Portal del Ángel,,,Nicaragua,13.4854083,-86.5805175
5877447986,Sabor Costeño,,,Nicaragua,12.1425022,-86.2518676
5927918085,Hotelito Flores,,,Nicaragua,12.9202942,-85.9186454
5968838467,Hotel Los Arcos,,,Nicaragua,13.0938728,-86.3559957
5992193486,DIWAS,,,Nicaragua,14.0344321,-83.3785377
6005626785,Vibra Guesthouse,http://www.facebook.com/vibraguesthouse,,Nicaragua,11.4658724,-86.1159674
6043099447,La Recolección,,,Nicaragua,12.4374023,-86.8776921
6093289909,Euro Hotel,,,Nicaragua,12.145498,-86.2753407
6096013362,Hotel Carelhyss,,,Nicaragua,11.1225686,-84.7788575
6122261586,Maderas Village,,,Nicaragua,11.2949346,-85.9053805
6122261587,Tribal Hotel,,,Nicaragua,11.9274515,-85.9520791
6231496292,EL PILOTO,,,Nicaragua,14.7446079,-83.9721192
6249787196,Hotel Chepita,,,Nicaragua,13.3695645,-85.6749183
6266841467,Hospedaje Atlántico No 2,,,Nicaragua,12.1521058,-86.2371963
6273203386,Hospedaje Bambu,,,Nicaragua,13.4891429,-86.5795351
6273326986,El Portal del Angel,,,Nicaragua,13.4855387,-86.5806428
6273326990,Columbia,,,Nicaragua,13.4878281,-86.5825492
6273327085,Hospedaje Camino Real,,,Nicaragua,13.4866058,-86.5806234
6273384585,Hospedaje Solentiname,,,Nicaragua,13.4886938,-86.5804513
6286295389,,,,Nicaragua,12.1303832,-86.2166237
6286689385,,,Bluefields,Nicaragua,12.0113433,-83.759724
6286689387,El Dorado,,,Nicaragua,12.0100932,-83.7620279
6286689388,Penzion López,,,Nicaragua,12.0106763,-83.7618203
6286689586,Lobster Pot,,,Nicaragua,12.0107848,-83.7619297
6287467485,Hostal Gonzalez,,,Nicaragua,12.013261,-83.7592416
6287467486,,,Bluefields,Nicaragua,12.013077,-83.7593364
6290130685,Jackani,,,Nicaragua,12.0089225,-83.7596461
6304526587,Hostal Alal Suite,,,Nicaragua,12.1839714,-83.0411929
6319237285,Hotel El Chinandegano,,,Nicaragua,12.6303513,-87.126754
6413206485,Hotel Cesar,,,Nicaragua,12.1135385,-86.3125954
6474141384,Hostal Monte Cristi,,,Nicaragua,12.1495502,-86.1780278
6514623086,Parque Maribios,,,Nicaragua,12.5818913,-86.7779454
6543792585,Salinas Don Carmelo,,,Nicaragua,12.1386471,-86.2577564
6713287787,Hostal El Manantial,,,Nicaragua,11.0199021,-84.3975592
6743153339,Hotel Wendy,,,Nicaragua,12.8884924,-86.5426299
6823157585,Hotel Caoba,,,Nicaragua,12.9341467,-85.9202433
7123728685,Finca Don Mincho,,,Nicaragua,11.5743685,-85.6651059
7124440085,Martha Kraudy,,,Nicaragua,12.9221146,-85.9190361
7136983285,La posada de Cokito,,,Nicaragua,12.130087,-86.2567879
7149102085,Apart-hotel acuarius de luis,,,Nicaragua,13.0743096,-86.3434654
7180000691,Aaki Hotel Las Peñitas,,,Nicaragua,12.3675244,-87.0312414
7180000787,Hotel Vista Mar Pochomil.,,,Nicaragua,11.7743361,-86.5124439
7215056586,El castillo,,,Nicaragua,12.9276712,-85.9152048
7229197110,Calalas Lodge (Hotel),,,Nicaragua,11.9915462,-86.1111964
7231466121,Calalas Lodge (HOTEL),,Nindiri,Nicaragua,11.9914757,-86.1113527
7235707988,Hotel Rancho Tranquilo,https://www.ometepe.eu/,,Nicaragua,11.5507841,-85.699448
7849735985,Finca los angeles,,,Nicaragua,12.0728416,-85.3081785
7897361531,Hotel Nueva Guinea,,,Nicaragua,11.6874132,-84.4602987
8306101617,Hotel comedor los Cocos,,,Nicaragua,11.4916329,-85.5414997
8308518917,Hotel bar Roosveelt,,,Nicaragua,12.6577579,-87.1606342
8572784518,Machele's - Room to Roam,,,Nicaragua,11.3901902,-86.0324139
8630208532,Hotelito,,,Nicaragua,11.6904882,-84.4596486
8630226405,Hotel Royale,,,Nicaragua,12.0139934,-83.7592695
9163466518,Hotel,,,Nicaragua,13.0087206,-87.503942
9258091529,Amaru Wellbeing Resort,,,Nicaragua,12.6338611,-87.3623198
9301605537,cool spot,,,Nicaragua,12.285841,-82.9749425
9400756301,Hotel Botique Marduk Gardens,,,Nicaragua,12.9576634,-86.349256
9411313917,Panorama 2,,,Nicaragua,13.0917344,-86.356328
9434513966,Pacaya Lodge and Spa,,,Nicaragua,11.9333959,-86.0630401
9447739721,Hotel El Almirante,,,Nicaragua,11.9326962,-85.9545468
9631932417,,,,Nicaragua,13.0086745,-87.5040187
9675990824,Hotel Taisiwa,,,Nicaragua,12.3803644,-85.5122754
9764902417,,,,Nicaragua,11.4503688,-85.5651133
9768292017,Hotel La Gran Sultana,,,Nicaragua,11.927103,-85.9539433
9780622517,Cabañas Lobotepe,,,Nicaragua,11.2483039,-85.8730252
9786504763,Hotel Bosawás,,,Nicaragua,12.9303475,-85.2360467
9953481447,Manku Lake Paradise,,,Nicaragua,11.897122,-85.8991009
9953481475,Hotel El Reith Lake,,,Nicaragua,11.9066595,-85.8995812
10114350417,Hotel Tranquilo,,,Nicaragua,12.3678219,-87.0315993
10126695166,Posada La Viña,,,Nicaragua,11.854805,-86.2374119
10173697917,Hotel Yavo,,,Nicaragua,12.9203261,-85.9242592
10173697918,Hotel Yali,,,Nicaragua,13.3033991,-86.186721
10296278877,Quinta Reyes,,,Nicaragua,12.9543777,-85.9119862
10582653405,El Espino,,,Nicaragua,11.8899496,-85.9132894
10647915370,,,,Nicaragua,13.0949641,-86.0006446
10647947071,Hospedaje El Campero,,,Nicaragua,13.0939392,-85.9999816
10757744492,Hotel Richar-son,,,Nicaragua,11.0184812,-84.3966277
10757759109,Hotelito San José,,,Nicaragua,11.0184982,-84.3962647
10759456964,Hotel Luna del Rio,,,Nicaragua,11.019872,-84.3969284
10759489249,Hotel Tropical,,,Nicaragua,11.0193901,-84.3961159
10827313447,SOLID Surfcamp,,,Nicaragua,12.0551676,-86.7066461
10836963015,Hotel Los Altos,,,Nicaragua,13.0917573,-86.3554841
10836963016,Finca Lindos Ojos,https://www.finca-lindos-ojos.com/,,Nicaragua,13.2419833,-86.2558655
10836973752,Melody 78 Hostel & Suites,https://www.facebook.com/Melody78Esteli/,,Nicaragua,13.0889358,-86.3568574
10867946105,Hospedaje Coffee & Cocktails,,,Nicaragua,13.0959332,-86.355609
10879308731,Hotel TICABUS,,,Nicaragua,12.1436615,-86.2802155
10896079494,Hostal Casa Vieja,,,Nicaragua,12.9269017,-85.9195206
10896079501,Hotel Casa Celebertti,,,Nicaragua,12.9230499,-85.9180158
10951039505,Perez Gadea,,,Nicaragua,13.1010276,-86.3371448
11067990184,Red Pepper Popoyo,https://www.redpepperpopoyo.com/,Popoyo,Nicaragua,11.4657347,-86.1156954
11068021223,99 Surf Lodge,,,Nicaragua,11.4501258,-86.0969838
11068053637,NicaWaves,,,Nicaragua,11.4593526,-86.0996506
11068055027,Breaks Lodge at Finca Popoyo,,,Nicaragua,11.4604707,-86.110578
11128974000,Los Volcanes Playa El Coco,,,Nicaragua,11.1612159,-85.803172
11133599934,Selvista Guesthouses,,,Nicaragua,11.4882645,-85.5070438
11150665193,Casa Calala,,Granada,Nicaragua,11.9338294,-85.9542771
11150720647,Hotel El Maltese,,Granada,Nicaragua,11.9290505,-85.9423185
11150731701,El Arca de Noe,,Granada,Nicaragua,11.9315257,-85.9567743
11150763329,Rouge by La Gran Francia,,Granada,Nicaragua,11.9292488,-85.9522147
11150810706,Backpackers Inn,,Granada,Nicaragua,11.9288987,-85.9572632
11150859889,Zopango Orchid Island,,Granada,Nicaragua,11.8846881,-85.9013374
11150926290,Boutique Hotel Maharaja,,Granada,Nicaragua,11.9301791,-85.9489498
11150939613,Hotel La Polvora,,Granada,Nicaragua,11.9290973,-85.9637126
11151025403,Soma Boutique Hotel,,Moyogalpa,Nicaragua,11.5452948,-85.6965405
11151053421,Hostal Nathaly,,La Paloma,Nicaragua,11.5267335,-85.7041247
11151126464,El Zopilote,,,Nicaragua,11.4882511,-85.5313722
11186639579,Villa Noche,,,Nicaragua,11.2587543,-85.8842968
11186640176,Nuestra Casa,,,Nicaragua,11.2554918,-85.8714981
11186647800,Arte-Sano Cafe,,,Nicaragua,11.2905679,-85.9048229
11186735043,TreeCasa Hotel & Resort Nicaragua,,,Nicaragua,11.2835275,-85.8727819
11186762561,Eden On The Chocolata,,,Nicaragua,11.2752791,-85.8851859
11188998149,Villas Playa Maderas,,,Nicaragua,11.2944471,-85.9104464
11189025138,Casa Marimba,,Catarina,Nicaragua,11.9402351,-86.0481806
11189038275,Hotel Ivania's,,,Nicaragua,11.976576,-86.0907641
11191438982,Las Dunas Surf Resort,,,Nicaragua,12.6459421,-87.3630296
11191446920,Hotel de Campo Apastepe,,,Nicaragua,12.6092276,-87.0754819
11191485945,Hotel Boutique Adela,,,Nicaragua,11.9316897,-85.9507577
11209083564,Lakeview Granada Hotel Boutique,https://lakeviewgranada.com/,Granada,Nicaragua,11.9029578,-85.94336
11211112088,Isleta Piel Dorada,,,Nicaragua,11.8873249,-85.9124784
11258941837,Hotel Agua del Arenal,,,Nicaragua,13.0274943,-85.9032716
11300667672,,,,Nicaragua,11.1220595,-84.7774116
11300667674,,,,Nicaragua,12.102202,-85.3678217
11300670969,,,,Nicaragua,11.1227238,-84.7765559
11300672169,,,,Nicaragua,11.1266381,-84.777722
11369854169,Somoto's hostal,,,Nicaragua,13.4867763,-86.5843237
11455597970,,,,Nicaragua,11.4368333,-85.829116
11455598271,,,,Nicaragua,12.1252511,-86.2415623
11457297069,Hotelito Jardin de Italia,,,Nicaragua,12.1442173,-86.2794577
11487342069,Nayal Lodge,,,Nicaragua,12.3704052,-87.0343644
11536740069,,,,Nicaragua,12.14432,-86.2805493
11536740070,,,,Nicaragua,12.1437059,-86.2797819
11704204192,Hotel Azul,,,Nicaragua,11.882566,-86.2359771
11711798606,Casa de Los Cocos,https://www.casadeloscocos.com,,Nicaragua,12.0554273,-86.706139
11776391669,Hotel Saint Tropez (Casares)- Hotel El Casino.,,,Nicaragua,11.6466314,-86.3586072
11908244169,Hotel Esperanza,,,Nicaragua,13.086672,-86.3523293
11990314952,Hotel Prueba,,,Nicaragua,11.1318322,-84.7748105
11991266296,Hospedaje Bananas,,,Nicaragua,11.5601063,-85.5644085
12100970788,Villalobos Hotel Managua,,,Nicaragua,12.1322416,-86.2525875
12113396264,Waves & Wifi,https://wavesandwifi.co/,Tola,Nicaragua,11.4729069,-86.1244013
12154002601,Hotel Al Sole,,,Nicaragua,12.4373932,-86.8884643
12161199301,Ometepe House,,,Nicaragua,11.5385681,-85.6990501
12177630301,Salty Surf,,,Nicaragua,11.4489762,-86.0949556
12376840201,Hostal Finca Monte Sion,,,Nicaragua,11.8849255,-86.0588091
12434247143,Gravity House Nic,,,Nicaragua,11.2560232,-85.8722506
12564170985,Surf & Yoga Retreats Nicaragua,https://surfnyoganicaragua.com,,Nicaragua,11.4727515,-86.1259024
12569309060,Balcones al Paraíso,,,Nicaragua,11.6357666,-86.3506258
12619158002,Grand River Logde Hotel,,,Nicaragua,11.0831186,-84.5440214
12646866901,Casa Happy Life,https://www.casahappylife.com/es/,,Nicaragua,11.2514708,-85.8701976
12703890104,Casa Riverstone,,,Nicaragua,12.4388869,-86.8740946
12745661901,Mango's Lodge,,,Nicaragua,11.4564175,-86.0789094
