id_hotel,nombre,url_principal,ciudad,pais,latitud,longitud
260396364,Hotel Majoro,https://www.hotelmajoro.com/,,Perú,-14.8432721,-74.9724993
415164647,Hostal Quillabamba,,,Perú,-12.8658579,-72.6959075
419335237,DoubleTree by Hilton Iquitos,http://www.hiltonhotels.com/es_XM/peru/doubletree-by-hilton-hotel-iquitos/http://www.hiltonhotels.com/es_XM/peru/doubletree-by-hilton-hotel-iquitos/,Iquitos,Perú,-3.7488964,-73.2441428
427042698,Victoria Regia,http://www.victoriaregiahotel.com,Iquitos,Perú,-3.7535025,-73.2468912
443137483,Hostal Los Angeles,,,Perú,-16.2137795,-69.4594446
485321326,Hostal El,,,Perú,-3.6994816,-80.709344
485321722,Hotel Playa Lucero,,,Perú,-3.7032497,-80.7147162
491524558,,,,Perú,-13.5268197,-71.9840393
491524574,,,,Perú,-13.527045,-71.9844255
519537886,Hotel La Casona,,,Perú,-3.7483134,-73.2444087
559281074,Puerto Mirador,,,Perú,-6.0301722,-76.9621778
563951845,La Portada,,,Perú,-13.707727,-76.2052654
624864573,Alice,,,Perú,-12.0407293,-77.0894536
633524557,Hotel Las Orquideas,,,Perú,-6.2292636,-77.874921
633940911,Hostal Roma,,Cercado,Perú,-12.0455044,-77.0344162
633941394,Hostal Colonial,,,Perú,-8.1095693,-79.0275148
633941415,,,,Perú,-6.771575,-79.83562
633941522,Hostal el Jacal,,,Perú,-9.5300416,-77.5254715
633941531,Hospedaje Los Jasmines,,,Perú,-7.1570173,-78.5153985
698778298,Dolce Vita,,,Perú,-10.6033937,-75.4420604
775293025,La Casa de Melgar,,,Perú,-16.3961581,-71.5334186
775337402,El Albergue,,,Perú,-13.2627204,-72.2706097
775337403,Hotel San Agustin Monasterio de la Recoleta,,,Perú,-13.3096402,-72.1072671
775340610,Munay Tambo,,Puno,Perú,-15.8385082,-70.0285149
775343196,Hostal Porta,http://www.hostalporta.com/,Miraflores,Perú,-12.1280978,-77.0334144
775346022,Eureka,,,Perú,-13.5162098,-71.9737879
778164092,Centro Andinismo Renato Casarotto,,,Perú,-9.3211518,-77.605711
817079363,Hotel El Chileno,,San Juan de Lurigancho,Perú,-11.9899367,-77.0130305
818620945,Escorpio,,,Perú,-11.9955132,-77.0148343
836517800,Arqueólogo,,,Perú,-13.5137518,-71.9776978
872650768,Brisas de la Bahia,https://www.brisasdelabahia.com/,Paracas,Perú,-13.8318585,-76.2471451
872689782,Alto Tambopata Lodge,,,Perú,-12.9334506,-69.5216172
873662066,La Hosteria del Monasterio,,Pisco,Perú,-13.7093714,-76.2057197
873867952,La Casa de mi Abuela,http://www.lacasademiabuela.com/,Arequipa,Perú,-16.3928036,-71.5323731
873886561,Casa Andina Classic,https://www.casa-andina.com/peru/hotels/colca-hotels/classic-colca/hotel.php,,Perú,-15.6400521,-71.6025252
873886572,Pozo del Cielo,,,Perú,-15.6334057,-71.6058763
874303963,Taypicala Spa,,,Perú,-15.8919215,-69.8878718
874303995,Taypicala Lago,,,Perú,-15.8905819,-69.8870009
874430124,Amazon Hostal,,Cusco,Perú,-13.5138952,-71.9748301
874430134,Hosteria Hrumicchaca,,,Perú,-13.2962146,-72.1395219
874652767,Tres Chimbadas Lake Lodge,,,Perú,-12.7917272,-69.344338
874652770,Lodge,,,Perú,-12.8214548,-69.4358134
874652813,Tambopata Research Center,http://www.perunature.com/amazon_lodge/tambopata-research-center/,,Perú,-13.1341781,-69.6108367
874686657,Posada Amazonas Lodge,,,Perú,-12.8022929,-69.2998371
874825455,Cayman Lodge,,,Perú,-12.8548863,-69.359861
876002889,Casa Andina Standard – Miraflores San Antonio,https://www.casa-andina.com/destinos/miraflores/standard-miraflores-san-antonio/,Miraflores,Perú,-12.1302428,-77.0219279
908387493,Edwards Inn,,,Perú,-9.5281167,-77.5333503
911065441,Arequipa Inn,,,Perú,-16.3956339,-71.532431
911065443,,,,Perú,-16.3942887,-71.5317734
911547512,La Maison d'Elise,,Yanahuara,Perú,-16.3916769,-71.5396529
914162081,,,,Perú,-16.3958676,-71.524971
929727313,Apu Lodge,,,Perú,-13.2562583,-72.2618808
939682222,,,,Perú,-10.571867,-75.3952098
942768821,La Case Escondida,,,Perú,-13.5122186,-71.9788796
995445961,Posada del Inca,,,Perú,-13.5173877,-71.979517
995446009,Garcilaso,http://www.hotelesgarcilaso.com,,Perú,-13.5180778,-71.9809991
1011871972,Marcelino's Hotel,,,Perú,-13.5298974,-71.9329873
1012808407,Puerto Escondido,,,Perú,-10.7613702,-75.2711684
1016904534,Boutique Hotel La Molina,,,Perú,-12.0623599,-76.9480684
1064698214,El Refugio,,,Perú,-15.6525109,-71.6214497
1064725973,San Agustin,,,Perú,-16.3958182,-71.5363056
1301953852,Hostal Colibri,,,Perú,-3.7486294,-73.2429547
1312125381,Hospedaje Iñapari,,Iñapari,Perú,-10.9440555,-69.5762831
1347759171,Hospedaja Sixpak Manco,,,Perú,-13.1146129,-72.9369652
1373664230,Casona Lara Lodge,https://casonalara.com,Caraz,Perú,-9.0488975,-77.8141192
1413403655,Los Andes,,,Perú,-12.9616796,-76.1405132
1420503344,Hotel Casuarinas,,,Perú,-12.9624134,-76.1411541
1420503351,Hotel El Mirador,,,Perú,-12.9615251,-76.1414071
1428454141,Casa de los Cerezos,,,Perú,-13.5147142,-71.9743342
1428454142,Hospedaje Inka,,,Perú,-13.5143698,-71.9728127
1428454143,Hotel del Artesano,,,Perú,-13.5144855,-71.9734348
1431652604,Swissotel Lima,https://www.swissotellima.com.pe/,San Isidro,Perú,-12.0972483,-77.0381904
1519922746,Pisac Inn,https://pisacinn.com/,,Perú,-13.4212163,-71.8507451
1519938548,Hospedaje Casa Elena,https://www.casaelenacusco.com/,,Perú,-13.5150931,-71.9759416
1520463329,Hotel Hacienda Cantayo Spa & Resort,,,Perú,-14.8256548,-74.9149713
1521447111,Gringo Bill's Hotel,https://gringobills.com/,Machupicchu Pueblo,Perú,-13.1539994,-72.5257795
1536286747,El Farol Inn,,,Perú,-9.473672,-78.2999096
1537298711,Thunderbird carrera,,,Perú,-12.0831907,-77.0360241
1559767472,Embajadores Hotel Lima,https://www.embajadoreshotel.com/,Miraflores,Perú,-12.1287846,-77.0326071
1607196940,,,,Perú,-12.0380108,-77.0846074
1639891553,La Pascana,,,Perú,-15.6363184,-71.6028415
1639891555,Colca Inn,,,Perú,-15.6342004,-71.6025519
1639905998,Hostal Rojas,https://www.hotelrojascusco.com/,,Perú,-13.5149686,-71.9806092
1651574112,Casa Yllika,,,Perú,-12.0842194,-77.0450768
1659962544,,,,Perú,-12.0791263,-76.5106229
1682251814,Peru Star,,,Perú,-12.0895188,-77.0486372
1684646007,Casa Barco,,,Perú,-4.1126732,-81.0767806
1685270765,Sunset Hotel,,,Perú,-4.1129019,-81.0770971
1689177433,Hostal Casa del Oro,,,Perú,-12.1024606,-77.0211348
1703367470,Hotel Qorikilla,,,Perú,-13.5147766,-71.9843451
1710916180,Buena Vista,,Yanahuara,Perú,-16.3847204,-71.5403068
1718845625,La Posada del Puente,https://laposadadelpuente.com/,Arequipa,Perú,-16.3924856,-71.5389621
1719896743,Casa Meditteranea,,,Perú,-4.1031192,-81.0529967
1736356008,Costa del Sol Arequipa,https://www.costadelsolperu.com/arequipa/,Alto Selva Alegre,Perú,-16.389276,-71.5326155
1764157046,Casa Sur,http://www.casasur.pe,,Perú,-14.0500498,-75.754139
1764157056,Las Dunas,https://www.lasdunashotel.com/,,Perú,-14.0483424,-75.7536462
1764187825,Hosteria Suiza,https://hosteriasuiza.com.pe/,,Perú,-14.087049,-75.7650353
1764218399,Casa Andina Classic,https://www.casa-andina.com/peru/hotels/nazca-hotels/classic-nazca/hotel.php,,Perú,-14.8279424,-74.9388501
1764290700,Colca Lodge,https://colca-lodge.com/,,Perú,-15.649798,-71.669015
1764303412,Casa Andina Classic,https://www.casa-andina.com/peru/hotels/arequipa-hotels/classic-arequipa/hotel.php,Arequipa,Perú,-16.3929181,-71.533104
1764308012,Maytaq Wasin Boutique Hotel,http://maytaqhotel.com,Cusco,Perú,-13.5172568,-71.9766659
1764335439,Inkallpa,http://www.inkallpa.com/,,Perú,-13.2804525,-72.1804723
1764335451,Pakaritampu,https://www.pakaritampu.com/,,Perú,-13.2623669,-72.267884
1764388328,Casa Andina Private Collection,https://www.casa-andina.com/peru/hotels/puno-hotels/private-collection-puno/location.php,,Perú,-15.8238833,-69.9971915
1764388331,GHL Lago Titicaca,https://www.ghlhoteles.com/hoteles/peru/puno/lago-titicaca/,Puno,Perú,-15.8278406,-69.9930686
1800153173,Hostal Pakarina,,,Perú,-13.1536354,-72.5235842
1807303541,Hotel Mamá Tina,http://www.hotelmamatina.com,,Perú,-8.0827952,-79.1193971
1807304029,Hotel Sol de Huanchaco,http://www.hotelsoldehuanchaco.tk,Huanchaco,Perú,-8.0818347,-79.1210231
1813223513,Boqueman Hotel,,,Perú,-8.0756,-79.1181215
1813223514,Hamar Hotel,,,Perú,-8.076018,-79.1175196
1815033752,Club Colonial,,,Perú,-8.0814167,-79.1225592
1815033753,Caballito de Totora,,,Perú,-8.0826529,-79.1228467
1844751683,Lima Wari,,,Perú,-12.1437535,-77.0220852
1854854475,Mar de Costa,,,Perú,-11.1201701,-77.6119681
1861719194,Casona Plaza,,,Perú,-15.8403996,-70.0268532
1861720436,Casa Andina,https://casa-andina.com/destinos/arequipa/casa-andina-select-arequipa/,Arequipa,Perú,-16.3988761,-71.5361316
1872788450,Hotel Kuelap,http://www.kuelaphotel.com/,,Perú,-6.2300838,-77.8732072
1879765872,Las Chullpas Eco Lodge,http://www.chullpas.pe,,Perú,-13.2868097,-72.1317954
1880783412,Hotel Casa Blanca,,,Perú,-7.1577096,-78.5171929
1880783414,Hostal Cajamarca,,,Perú,-7.1585856,-78.5179342
1881741377,Hotel Continental,,,Perú,-7.1568457,-78.5160026
1881761102,Hostel Casona,,,Perú,-6.7082913,-77.8048905
1882531087,Hotel Kamaná,,,Perú,-12.0480399,-77.03403
1884064501,Colpa Lodge,https://www.mountainlodgesofperu.com/,,Perú,-13.322062,-72.6651628
1895708184,Wyndham Costa del Sol Tumbes,,,Perú,-3.5681179,-80.4576339
1896203852,"Hotel ""CAMACHO""",,,Perú,-12.7882797,-74.9730822
1913887104,Hotel Rumi Punku,https://www.rumipunku.com,,Perú,-13.5138939,-71.9770439
1913887107,,,,Perú,-13.5142355,-71.9804141
1914105341,Guest House Indigo,,,Perú,-13.513759,-71.9762755
1921399126,Los Mirtos Suite & Hotel,https://hotellosmirtos.com/,Lince,Perú,-12.0892422,-77.0288992
1922793480,,,,Perú,-12.0908529,-77.0272215
1922793483,,,,Perú,-12.0894052,-77.0255371
1922933481,Boulevard Hotel,,,Perú,-12.7587956,-76.6011608
1925610346,El Molino Hotel y Restaurante,,,Perú,-12.9601685,-76.1424454
1925731707,Hotel Las Mercedes,http://www.lasmercedeshostal.com/,Arequipa,Perú,-16.40076,-71.542284
1925731727,Villa Mar,,,Perú,-14.8509035,-74.9583349
1946737784,,,,Perú,-8.0711687,-79.1199713
1969055614,Soul Mate,,,Perú,-12.1151312,-77.0459818
1978532545,Samanapaq,,,Perú,-13.2590947,-72.2614493
1990578179,Hostal Lira,,,Perú,-12.8684385,-72.6957776
1990578181,Hostal Don Carlos,,,Perú,-12.8639755,-72.6940396
2016454474,Hotel Plaza,,,Perú,-12.3991309,-74.8684738
2040976716,Puesta del Sol,,,Perú,-12.5946349,-69.1758846
2064136962,Kankay Resort,,,Perú,-12.0647195,-76.7483413
2109506411,,,,Perú,-10.8116152,-76.8751319
2110916818,Intiotel,http://www.intiotel.com/piura/index2.html,,Perú,-5.1955408,-80.6273402
2154507740,Hotel Madera Verde,,,Perú,-9.3130647,-76.0013696
2183554315,Los Girasoles,http://www.losgirasoleshotel.com,Miraflores,Perú,-12.1218954,-77.0231186
2202257437,Presidente,https://hostalpresidente.com/,Machu Picchu Pueblo,Perú,-13.1543799,-72.5264204
2204524313,Hotel Warari,http://www.hotelwarari.com/,,Perú,-13.5236668,-71.9725738
2250362474,Waynapicchu Hotel,,,Perú,-13.5225896,-71.9724005
2263262061,Munay Wasi Inn,,,Perú,-13.518521,-71.9741292
2328007825,Hotel Casa de Campo,,Cusco,Perú,-13.5119905,-71.9775844
2346119168,Mami Panchita,,,Perú,-12.0930477,-77.0776755
2347222439,El Ducado,https://www.ducado.pe/,Miraflores,Perú,-12.1287333,-77.0321499
2347249187,Casa de Campo,,,Perú,-13.2939918,-72.1299411
2347260827,Sillustani,,,Perú,-15.8384083,-70.0288379
2365909899,,,,Perú,-11.1211115,-75.3511938
2365967521,,,,Perú,-13.711192,-76.203598
2365974958,Fuente de Arequipeña,http://www.lafuentearequipena.com/,,Perú,-16.3907122,-71.5308896
2365990805,Villa Mayor,,,Perú,-13.5169469,-71.9798528
2377003846,Lake Titicaca Hotel,,,Perú,-15.8230064,-69.9952839
2396503104,Hotel Santa Cruz,https://www.santacruzperu.com/en/,Huaraz,Perú,-9.5364204,-77.5241754
2397532409,Cusco Plaza I,,,Perú,-13.51561,-71.9771166
2411899241,Hotel José Antonio,https://www.hotelesjoseantonio.com/es/hotel-josealima-en-lima/,Miraflores,Perú,-12.1265985,-77.0310299
2420468336,Hospedaje Leoncio Prado,,,Perú,-10.7529406,-77.7584981
2420468385,Hospedaje Casablanca,,,Perú,-10.7612707,-77.7635473
2430115715,Romance,,,Perú,-10.7976292,-77.7112651
2430385738,,,,Perú,-6.4723297,-79.8552734
2472359228,Refugio Viñak,http://www.refugiosdelperu.com/,Viñac,Perú,-12.933576,-75.7815203
2477893317,Guizado Portillo,https://www.guizadoportillo.com/,,Perú,-12.8707698,-76.0623997
2478626683,Hotel Rio Alto,,,Perú,-12.953387,-76.1417073
2510764872,Suites del Bosque,https://www.suitesdelbosque.com/,San Isidro,Perú,-12.0973086,-77.0332969
2523277871,La Colmena,,,Perú,-13.1602605,-74.2245367
2528935672,Hotel Los Palomos,https://www.hotellospalomos.com/,,Perú,-12.9908277,-76.1594143
2569106011,Hacienda Yanamarca,http://www.haciendayanamarca.com,Llacanora,Perú,-7.2190479,-78.42137
2574703586,Hostal Tropical,,Quillabamba,Perú,-12.8641365,-72.6941258
2574836618,Hatun Ayllu Panaka,https://www.panakarealhotel.com,Cusco,Perú,-13.5218268,-71.9790619
2612174832,Hostal Casa Grande,,,Perú,-13.5169476,-71.9768163
2616243420,El Hueco,,,Perú,-4.4564031,-81.2858729
2641077616,Casa Falleri Boutique Hotel,,Barranco,Perú,-12.1442201,-77.0217436
2650856593,Coralia Hotel,,Puquio,Perú,-14.693688,-74.1239989
2650879581,Hostal Josuef,,Puquio,Perú,-14.6948237,-74.1243839
2657010445,Hotel las palmeras de Asia,,,Perú,-12.7599581,-76.6006789
2697155700,Golden Inn,,Santiago de Surco,Perú,-12.1322082,-76.9780844
2717168090,Salva a la Vida,,Alto Perú,Perú,-17.5745994,-69.6788915
2717168091,Don Alex,,Alto Perú,Perú,-17.5748331,-69.6797791
2722815395,Rubi,,,Perú,-12.0790463,-77.0791603
2735773931,Hostal Mama Simona,,,Perú,-13.5176326,-71.9841039
2740931099,Hostal Cerro Azul,,,Perú,-13.028451,-76.4826351
2741005717,Blue Star,http://www.bluestar-hotel.com/es/,,Perú,-12.0910632,-77.0098508
2771695090,Foresta Hotel & Suites,https://forestahotellima.com/en/,San Isidro,Perú,-12.1026611,-77.0377318
2777094958,La Casa de Fray Bartolomé,https://www.hotelescbc-cusco.com/frayen/,,Perú,-13.5189971,-71.9738306
2779893216,Due Hostal & Suites,,Víctor Larco Herrera,Perú,-8.1364844,-79.0471113
2795705108,Manish Hotel Ecológico,https://manishhotel.com.pe/,,Perú,-8.393825,-74.5685966
2800380384,Royal Inka Pisac,,,Perú,-13.4211957,-71.8404683
2805145553,Kantu Hospedaje,,Wanchaq,Perú,-13.5401935,-71.9409359
2823847984,In Casita,,,Perú,-13.5281116,-71.9471671
2827491240,Las Cabanas,,,Perú,-15.8924749,-69.8906099
2830479832,Rio Hotel Casino & Spa,,Pucallpa,Perú,-8.3846157,-74.5309832
2845385209,Grand Hotel Mercedes,https://granhotelmercedes.com/,Pucallpa,Perú,-8.3861407,-74.5312139
2884028233,Hotel de turistas Camaná,,,Perú,-16.6221358,-72.7099222
2890237201,Hotel Sol,http://www.hotelsolperu.com,,Perú,-13.258099,-72.2645339
2906407305,Casa Andina Private Collection,https://www.casa-andina.com/en/destinations/arequipa/hotel-arequipa-peru_casa-andina-premium/,Arequipa,Perú,-16.3953857,-71.5378897
2906923290,Punta Arena,,,Perú,-16.650911,-72.6750709
2906935149,Hostal Nazca,,,Perú,-14.8292386,-74.9383833
2907022607,Hostal Andenes,,Puno,Perú,-15.841872,-70.0290123
2908982624,Alubias,,,Perú,-14.5355184,-75.1867289
2912984653,La Posada del Conde,,,Perú,-15.6221889,-71.9784647
2912991782,Hospedaje San Martin,,,Perú,-15.6364268,-71.6043132
2913410226,Los Portales de Lunahuana,,,Perú,-12.9628783,-76.1407509
2916442801,Hotel Rumi Wasi,,,Perú,-12.9669434,-76.1482957
2917965974,Boulevard Plaza Hotel,http://www.boulevardplaza.pe/,Pucallpa,Perú,-8.3834128,-74.530599
2919661751,Hotel Puerto Inca,http://www.puertoinka.com.pe/,Chala,Perú,-15.8383429,-74.3119739
2922674738,Carola Lodge,,,Perú,-14.0866011,-75.7644144
2936189114,Hotel Sol de Piura,,Piura,Perú,-5.1985347,-80.6271926
2943999057,Jisselly,,,Perú,-5.0578393,-73.8537062
2944008135,Hospedaje Lidia,,,Perú,-5.0594271,-73.85556
2946493419,Real Hotel Huascaran,,,Perú,-9.5128397,-77.5310918
2955193433,Kenti Tambo,,,Perú,-6.7247287,-77.7974686
2956751097,Hotel Hispano,http://www.hotel-hispano.com,Piura,Perú,-5.1952588,-80.6285767
2965017528,Choctamal Lodge,,,Perú,-6.3966627,-77.9817472
2965337854,Hacienda San VIcente,,,Perú,-7.1630446,-78.5288403
2967062235,Hospedaje Casa Blanca,,,Perú,-9.5262178,-77.5313391
2970223526,Aruba,,,Perú,-10.7560631,-77.7610198
2979351661,Huembo,,,Perú,-5.8579391,-77.9847731
2986546823,Hotel Dulce Amanecer,http://hoteldulceamanecer.blogspot.com/2014/07/bienvenidos-al-hotel-dulce-amanecer_29.html,Pachangara,Perú,-10.8113499,-76.8742832
3017886224,Miramar,,,Perú,-10.0481185,-78.1582047
3019675189,Hotel Corpac,,,Perú,-12.1071818,-77.0119843
3036845287,Soledad B&B,,Huaraz,Perú,-9.5307256,-77.5236549
3036982291,El Peregrino,,,Perú,-17.1883084,-70.9313881
3049822610,Hospedaje Costa Norte,,,Perú,-4.1071886,-81.0582125
3049828843,Hospedaje Taroland,,,Perú,-4.10721,-81.0582983
3049829652,Hospedaje Casablanca,,,Perú,-4.1073598,-81.0581696
3049830890,Hospedaje Willy,,,Perú,-4.1073812,-81.0552728
3049830891,Hospedaje Gaby,,,Perú,-4.1073812,-81.0551977
3049830905,Casa de Playa,,,Perú,-4.1119185,-81.0759687
3049830906,Las Pocitas,,,Perú,-4.1148292,-81.0796916
3049830907,Casa Luna,,,Perú,-4.115985,-81.0820413
3049830908,Casa Azul,,,Perú,-4.1173975,-81.0852492
3049830909,Nos Noa,,,Perú,-4.1180824,-81.0862577
3049830910,Casa Punta Alta,,,Perú,-4.1183606,-81.0867727
3049888141,Puenta del Mar,,,Perú,-4.111255,-81.0747349
3049888986,Hotel Gran Caimán,,,Perú,-4.1066107,-81.0514534
3049888996,Casa Mira Mira,,,Perú,-4.11423,-81.0786402
3049888998,Tótem,,,Perú,-4.1167127,-81.0835326
3049888999,Mariposas,,,Perú,-4.1172477,-81.084938
3049889000,Coconut Grove,,,Perú,-4.1176972,-81.0857534
3049890554,Hospedaje Aryia,,,Perú,-4.1074026,-81.0571826
3049890567,Hospedaje Balsa y Totora,,,Perú,-4.107424,-81.0553479
3049890573,Hotelier,,,Perú,-4.1114049,-81.0701108
3049890574,Puerto Palos,,,Perú,-4.1139518,-81.0783184
3049890576,Rocapulco,,,Perú,-4.1165628,-81.0831034
3049890577,Los Corales,,,Perú,-4.1169909,-81.0842514
3084739405,Hotel Sierra Dorada,,,Perú,-13.1490741,-74.2256905
3084826682,Hostal Cumana,,,Perú,-13.1537337,-74.2214007
3084870155,Hotel Sol de Ayacucho,,,Perú,-13.1501693,-74.2257709
3084921358,Hospedaje Venus,,,Perú,-13.1471544,-74.2253495
3084954590,Tinoco Apart Hotel,,,Perú,-13.1631798,-74.2244955
3085109376,Restaurant Hotel Los Alamos,,,Perú,-13.1601679,-74.2237761
3085141262,My Love,,,Perú,-13.1570128,-74.2270884
3085228490,Hotel Rivera,,,Perú,-13.1590914,-74.2287861
3085228495,San Francisco de Paula,,,Perú,-13.1591503,-74.2284681
3085257912,Hotel Los Libertadores,,,Perú,-13.1620173,-74.2293054
3086011770,Hotel Las Terrazas,,,Perú,-13.1687064,-74.2093687
3086031094,Hospedaje Mi Cielo,,,Perú,-13.1680309,-74.2116768
3086109527,Hotel Kankun,,,Perú,-13.1694327,-74.2110548
3086174114,Hospedaje Asamblea,,,Perú,-13.1594523,-74.2250377
3086195012,Hospedaje Cruzero,,,Perú,-13.1586882,-74.2247203
3086195013,Hotel Las Americas,,,Perú,-13.1583062,-74.2246384
3086308577,Hospedaje El Profe,,,Perú,-13.1644335,-74.2189949
3086395066,El Libertador,,,Perú,-13.1618831,-74.2275579
3086402060,Hospedaje Amancer,,,Perú,-13.1636468,-74.2234503
3086589925,Hospedaje Terminal,,,Perú,-13.1347378,-74.229917
3086590236,,,,Perú,-13.1360049,-74.2290953
3086590243,,,,Perú,-13.1381565,-74.2289025
3086593167,Hotel La Reserva,,,Perú,-13.1544111,-74.2267885
3086724756,Ronda,,,Perú,-13.1605443,-74.2226248
3086779496,Hospedaje Bellido,,,Perú,-13.158266,-74.2270808
3089936386,casa de palos,,,Perú,-6.4862447,-76.3595064
3091425756,Hotel Rafaela,,,Perú,-13.1568451,-74.227681
3091653104,El imperio 2,,,Perú,-13.1645201,-74.223703
3105338093,KiCHIC,,,Perú,-4.1270285,-81.0965065
3105338309,Arennas Mancora,,,Perú,-4.1258118,-81.0950343
3105338310,DCO Hotel Mancora,,,Perú,-4.1241157,-81.0933928
3108366886,Owlet Lodge,https://www.ecoanperu.org/lechucitabigotona/owledlodge.html,,Perú,-5.6975784,-77.8110811
3113078579,Hostal El Paraiso,,,Perú,-13.6803832,-76.1582269
3115752069,Villa Jennifer,,,Perú,-9.2698143,-76.0083989
3124829986,Sandoval Lake Lodge,,,Perú,-12.6061224,-69.0324669
3128427722,Hotel Santa Rosa,,Chiclayo,Perú,-6.769956,-79.842153
3150107777,Hostal Kuska,,,Perú,-12.0371169,-75.226681
3180926278,Lobos de Canoas,,,Perú,-3.9105375,-80.8848199
3221209578,Hotel California,,,Perú,-5.1967533,-80.6290483
3221209941,hotel lalo,,,Perú,-5.1965823,-80.6292844
3224406837,hospedaje,,,Perú,-13.5326573,-71.9221065
3234385057,La Casa Fitzcarraldo,http://www.casafitzcarraldo.com/,Iquitos,Perú,-3.715176,-73.2456425
3234472714,Refugio Amazonas Lodge,,,Perú,-12.8751585,-69.4101289
3234756229,Tierra Viva,,,Perú,-12.125779,-77.0283503
3235482477,Hostal Cruz del Sur,,,Perú,-13.6579972,-73.3875561
3237441161,Quinua Villa Boutique,http://www.quinua.com.pe/,Cusco,Perú,-13.5123596,-71.9762043
3266855075,Hotel Chakana,https://www.chakanahostel.com/,,Perú,-13.5239822,-71.9720146
3270636383,Camino Real Turistico,,Puno,Perú,-15.836554,-70.0284571
3307948045,,,,Perú,-13.1695061,-74.2107045
3307948046,Hotel Malibu,,,Perú,-13.1698239,-74.2086508
3321557447,Hotel Suiza Peruana,https://www.suizaperuana.com/home-hotel.html,Huaraz,Perú,-9.5331666,-77.5275818
3321566966,Andino Club Hotel,https://www.hotelandino.com/,Huaraz,Perú,-9.534652,-77.5230031
3379539095,El Señorial,,Miraflores,Perú,-12.1289625,-77.0286559
3379539176,SunFlower Inn,http://sunflowersinn.com/,Miraflores,Perú,-12.1175715,-77.0288096
3398016798,El Huacachinero,,,Perú,-14.0865858,-75.7635278
3402848229,Andrea's Inn,,Cusco,Perú,-13.5207592,-71.9716176
3405866334,Hospedaje Wari,,,Perú,-13.1346735,-74.2288386
3437626554,Wayra's Hostal,,Ollantaytambo,Perú,-13.2622019,-72.2683762
3442167964,Tandapata Boutique Hotel,,Cusco,Perú,-13.5152487,-71.9736361
3443685593,Amaru Tambopata,,,Perú,-12.6364257,-69.2602135
3463611178,Hotel Moquegua,,,Perú,-17.1950627,-70.9350031
3496229452,Hotel Caminos del Inca Inn,,Santiago de Surco,Perú,-12.1434949,-76.9854179
3503556709,Hotel Leo,,,Perú,-11.1606213,-75.9929764
3507851324,HOTEL TIERRA INKA SACRED VALLEY,https://www.hoteltierrainka.com/,Ollantaytambo,Perú,-13.2592652,-72.2691489
3567167839,La Cabaña,,,Perú,-13.1535417,-72.5234696
3573317096,Casa San Blas,https://www.casasanblas.com/,,Perú,-13.5155287,-71.9749918
3575175917,El Mercado,,Cusco,Perú,-13.5162978,-71.9824714
3587014559,Gran Hotel Ilo,,,Perú,-17.6260883,-71.3430474
3608231465,Hotel el Dorado,,,Perú,-16.6210304,-72.7092977
3646844335,Andes Camp,,,Perú,-9.5327765,-77.5324804
3656116736,Bayview Hotel,http://www.bayviewhotel.com.pe/,Miraflores,Perú,-12.1306242,-77.0292142
3657195283,Hostal el Patio,,Miraflores,Perú,-12.1222004,-77.0272357
3663690274,Alpes Huaraz,http://www.hostalalpeshuaraz.com/,Huaraz,Perú,-9.529145,-77.524032
3672138053,Hotel Tornado,,,Perú,-13.307058,-72.1191978
3684560265,La Hosteria,,,Perú,-16.3942358,-71.5370686
3699702109,Hostal Sueno Tropical,,Tarapoto,Perú,-6.4840921,-76.35766
3706962727,Puerto Plameras Tarapoto Resort,,Tarapoto,Perú,-6.5117308,-76.3401016
3708236920,Hotel El Sol,http://www.hotelelsol.com.pe/,,Perú,-10.729593,-75.2638523
3713225230,Hostal Continental,,,Perú,-10.7529082,-77.7601983
3717446403,Hospedaje Los Inkas,,,Perú,-13.1543064,-74.2174167
3717460892,WARI,,,Perú,-13.1349322,-74.2292131
3717460895,,,,Perú,-13.1361166,-74.2290638
3717512366,EL SILENCIO,,,Perú,-13.140502,-74.2290025
3717515999,,,,Perú,-13.1422006,-74.2287905
3717517559,,,,Perú,-13.1415959,-74.2288535
3717525228,Castilla,,,Perú,-13.1641395,-74.2198558
3717525259,,,Ayacucho,Perú,-13.1642436,-74.2194394
3717582925,Momentos,,,Perú,-13.1452746,-74.2251922
3717595403,Secretos,,,Perú,-13.1670256,-74.2278576
3717602558,El Olimpo,,,Perú,-13.1473693,-74.2239947
3717704905,Hostal El Puerto WIFI,,San Francisco,Perú,-12.6236651,-73.7889045
3730567695,,,,Perú,-13.0015296,-73.5129654
3739166714,Casa Blanca,http://www.hostalcampestrecasablanca.com/,Ichu,Perú,-15.8758027,-69.9298394
3742002519,El Portal,,,Perú,-8.3832311,-74.5331726
3742670487,Hostel Benkawasi,https://huarazbenkawasi.com/,,Perú,-9.5319027,-77.5318321
3757880314,Hostal San Carlos,,Puno,Perú,-15.8375108,-70.0257452
3758353110,Qalasaya,http://hotelqalasaya.com,Puno,Perú,-15.8395983,-70.0281461
3759094339,Zurit,,Puno,Perú,-15.8378378,-70.0268456
3759191247,Costa del Sol,,,Perú,-7.1570321,-78.5182672
3760145817,Amelita Lodging,http://amelitalodging.com/,,Perú,-9.5315835,-77.5292495
3760167853,Hotel Pastoruri,,,Perú,-9.5185514,-77.5293243
3760171153,Hatun Wasi Hostel,https://hatunwasihuaraz.com/,,Perú,-9.5204414,-77.5280091
3760242177,Peru Bergsport Hostel,,,Perú,-9.5196187,-77.5254828
3760870557,El Abuelo,https://www.elabuelohotel.com/,,Perú,-9.2796093,-77.6464564
3760870558,Karhuash,,,Perú,-9.2828885,-77.6466208
3761245584,Comtucar,,,Perú,-9.2875148,-77.6399519
3761931455,Hostal Gran Versalles,,Arequipa,Perú,-16.3935714,-71.5264566
3767778957,Monterrey,http://www.hotelmonterreypuno.com/,Puno,Perú,-15.8394288,-70.0278785
3769452372,Hotelazo de Sicsi,,,Perú,-8.6239776,-77.5793106
3770668479,Hostal Franchesca,,Pingullo Bajo,Perú,-8.5558015,-77.6288923
3778711390,Sol Plaza,https://solplazahotel.com/,Puno,Perú,-15.8406544,-70.0270892
3780197064,Tunanmarca,,,Perú,-11.7782193,-75.4980706
3780197187,Hospedaje 7,,,Perú,-11.7694255,-75.502279
3780197806,Santa Rosa,,,Perú,-11.7750369,-75.5007636
3781301827,Qoñi Wasi Hostal,,Puno,Perú,-15.836812,-70.0263865
3781456728,Hostal Los Uros,http://www.hostaluros.net,Puno,Perú,-15.8366558,-70.0270477
3781833249,Casa Andina Standard Machu Picchu,,Machu Picchu Pueblo,Perú,-13.1561216,-72.5242775
3783401764,Hostal Private,,,Perú,-12.0238222,-77.0520656
3786677820,Andes Lodge Perú,https://www.andeslodgeperu.com/,,Perú,-9.021703,-77.4696644
3790127570,Aranwa,,,Perú,-15.6388481,-71.6487511
3791117866,El Mirador,,,Perú,-9.1583561,-77.3667381
3791229720,Hostal Pukayaku,,,Perú,-9.0925375,-77.3288313
3797433635,The Way Inn,https://thewayinn.com/,,Perú,-9.504398,-77.4663119
3798777157,Hostal La Merced,,,Perú,-9.2828008,-77.646465
3800570863,Casa Hotel Huaraz,,Huaraz,Perú,-9.5341638,-77.5234268
3801664208,Ibis Larco Miraflores,,Miraflores,Perú,-12.1289829,-77.029921
3811803688,Hostal California,http://hostalcaliforniaperu.blogspot.pe/,Mollendo,Perú,-17.0263222,-72.0148896
3822146805,Hospedaje Yemayá,http://www.hospedajeyemaya.com/,Nasca,Perú,-14.8276493,-74.93989
3822152849,El Andariego,https://andariegocusco.com,Cusco,Perú,-13.5199039,-71.9786067
3829335038,One Hotel,,,Perú,-12.1439566,-77.0221368
3878618637,Tuki Llajta Pueblo Bonito Lodge,https://www.tukillajta.com/,San Jerónimo de Tunán,Perú,-11.9512594,-75.2694466
3880823995,HOTEL Casa Andina Select Zorritos,,,Perú,-3.7109095,-80.7247768
3892812854,Cock-of-the-rock Lodge,,,Perú,-13.0561635,-71.5459154
3894254309,The Tayta Machupicchu,,Machu Picchu Pueblo,Perú,-13.154153,-72.5237038
3894470661,Wiracocha Inn,http://www.wiracochainn.com,Machu Picchu Pueblo,Perú,-13.1543107,-72.5233482
3902428775,Hostal El Amigo,,,Perú,-13.8341674,-76.2492406
3907312320,Hostal Kokis,,,Perú,-8.8189395,-77.862721
3907312321,,,,Perú,-8.8190482,-77.8630536
3912369338,Hostal Señor de Luren,http://hostalsenordeluren.com/,Carhuaz,Perú,-9.2813394,-77.647196
3912457406,Casa de Pocha,http://www.socialwellbeing.org/,,Perú,-9.2772419,-77.6336717
3913792014,,,,Perú,-3.4219801,-72.7644249
3918967309,Indero,,,Perú,-11.9270699,-77.0648596
3946468710,Hospedaje Valle Real,,Huarmey,Perú,-10.0701672,-78.1554694
3946468712,Hostal María,,Huarmey,Perú,-10.0693479,-78.154585
3946468713,Hostal Santa Rosa,,Huarmey,Perú,-10.0681349,-78.1519613
3946468714,Jessica Hostal,,,Perú,-10.0690572,-78.1531875
3946800906,,,,Perú,-16.4006946,-71.5328955
3959963727,Encantada Boutique,http://www.cuscohotel-encantada.com/,,Perú,-13.5122707,-71.9766147
3981035406,Hostal La Posada Norteña,,,Perú,-6.7115586,-79.9011048
3981047580,Los Pinos de Miraflores,,,Perú,-6.760545,-79.8583836
3981080361,Cesa's Palace,,,Perú,-7.3999322,-79.5682735
3981080362,Da Vinci,,,Perú,-7.4006532,-79.5720549
3981080364,Marcos,,,Perú,-7.4013749,-79.5690508
3981080366,Perú,,,Perú,-7.4009527,-79.5717159
3981080367,Playa Linda,,,Perú,-7.4004063,-79.5714996
3981080368,Reflejos,,,Perú,-7.4007251,-79.569008
3981080370,Villa del Mar,,,Perú,-7.4009186,-79.5717805
3985383557,Grau,,,Perú,-4.6568092,-80.2438697
3985383558,Kelly,,,Perú,-4.6567434,-80.2428365
3985383563,Hostal Plaza,,,Perú,-4.6578125,-80.2438489
4001062361,Posada Blanca,,,Perú,-5.1851433,-80.630567
4001068551,Uruguayo,,,Perú,-5.1695476,-80.6288548
4001097018,Loma Blanca,,,Perú,-5.1704722,-80.627392
4002950771,Mirador del Titikaka,,,Perú,-15.8101602,-70.0221694
4003416722,MANSION RIVIERA,,Arequipa,Perú,-16.4031671,-71.5392114
4018045192,Mar Azul,,,Perú,-13.8336628,-76.2488663
4040885313,,,,Perú,-13.1673325,-74.2128562
4040928490,La nueva,,,Perú,-13.1670367,-74.213402
4040952123,Manu Paradise Lodge,,,Perú,-13.055685,-71.5441116
4041007593,Puerta Blanca Guest House,,Cusco,Perú,-13.5162956,-71.9743375
4046035669,La Plaza Arequipa Hotel,http://laplazaarequipahotel.pe/es/,Arequipa,Perú,-16.3982587,-71.5374206
4046060636,Plaza Residence,http://www.plazaresidenceaqp.com/home/,Arequipa,Perú,-16.3992701,-71.5377748
4072240213,Murcia,,Arequipa,Perú,-16.3921469,-71.5326914
4075535941,United Hotel,,Yanahuara,Perú,-16.3899757,-71.5455237
4076117228,Villa Pastor,,,Perú,-15.6224376,-71.9811098
4076119628,La Casa de Pablo,,,Perú,-15.6216218,-71.980297
4076120081,La Granja del Colca,https://www.restaurantcolca.com/,,Perú,-15.6096473,-71.9290699
4081364502,Hotel María Luisa,http://marialuisa-hotel.com/,Miraflores,Perú,-12.1219762,-77.0282903
4081372719,Casa Suyay,https://casasuyay.com/,Miraflores,Perú,-12.1205417,-77.0283682
4081383183,Hotel Esperanza,,,Perú,-12.1205142,-77.0264542
4086943255,Hotel Continental,https://www.hotelcontinentallima.com/,Lima,Perú,-12.0505183,-77.0332312
4094860189,El coral,,,Perú,-6.7630467,-79.837501
4096541010,Casona Solar,https://www.casonasolar.com/es/,Arequipa,Perú,-16.4018184,-71.5370879
4096565518,Nova,,Arequipa,Perú,-16.4243325,-71.5444702
4097769652,Vallehermoso,https://www.hotelvallehermoso.com/,,Perú,-15.2138939,-72.8866437
4097770304,Morochucos,,,Perú,-13.5624056,-74.1957127
4097770343,Hotel Cotahuasi,,Cotahuasi,Perú,-15.212093,-72.8912126
4101155989,Hospedaje Camelot,,,Perú,-12.0811614,-77.018535
4105317890,Hotel Caleta,,,Perú,-13.1590626,-74.2051899
4105347489,Hotel Flores,,,Perú,-13.1569259,-74.2046408
4106660489,Unumizu Cusco Hotel,http://www.unumizu.com,Cusco,Perú,-13.5230739,-71.9699041
4106850931,Hotel Asturias Gold,http://www.hotelesasturias-peru.com/arequipa-gold.html,Arequipa,Perú,-16.3960538,-71.5361316
4107727094,Hostal Hogar,,,Perú,-18.0130196,-70.2503924
4108076189,,,Ayacucho,Perú,-13.1509461,-74.2276928
4108127990,Hatun Wasi,https://www.hotelhatunwasi.com/,,Perú,-13.5159521,-71.9801244
4108925122,Illary,,,Perú,-12.7869611,-74.9722357
4109157991,Hotel San Jorge,,,Perú,-13.7070904,-76.2030164
4109808595,Arco Iris,,,Perú,-13.2870541,-72.133044
4109813692,Hotel Kuntur Wasi,,,Perú,-15.6231485,-71.9815169
4110047113,El Presidente,,,Perú,-12.7876147,-74.9728516
4110504872,Hostal Mirasol,http://www.hotelmirasolaqp.com/,Arequipa,Perú,-16.3925219,-71.5314316
4110620289,Hospedaje Caribe,,,Perú,-7.2209108,-78.8384508
4110979074,Casona Terrace Hotel,http://www.hotelcasonaterrace.com/,Arequipa,Perú,-16.4008859,-71.5371777
4115228118,Palla Boutique,https://www.palla.pe/es/casa/,Arequipa,Perú,-16.398143,-71.5406431
4115228756,Hotel Riviera,,,Perú,-16.3990841,-71.5380305
4115239940,Vista al Mar,,,Perú,-16.2288661,-73.6112028
4115247793,,,,Perú,-15.8418874,-74.2690658
4115247808,Villa carino,,,Perú,-14.0785305,-75.7378318
4115269489,Hostal Mario,,,Perú,-7.7476549,-79.1914821
4115579261,1900 Backpacker's Hostel,https://1900hostel.com/,Lima,Perú,-12.0610866,-77.0380236
4117063789,Rodrigo,,,Perú,-5.9859022,-79.7469895
4119775564,Residencie Palaco Dorado,,,Perú,-11.877086,-77.0693733
4119777814,Hotel Mercedes,,Santiago de Surco,Perú,-12.1327595,-76.9783963
4119778052,Hotel El Tumi,https://www.hoteleseltumi.com.pe/,,Perú,-9.5330739,-77.5303674
4120063250,Hostal Miskipacha Machupicchu,,Machu Picchu Pueblo,Perú,-13.1541763,-72.5267548
4122117628,Hospedaje Municipal,,,Perú,-12.2035751,-75.7992246
4124065994,Hotel Contumaza,,,Perú,-7.3656598,-78.8039746
4131856797,Bahía del Puerto,,,Perú,-17.0293431,-72.0164408
4134856589,Hospedaje El Parque,,,Perú,-13.1602772,-74.2268841
4135080426,,,,Perú,-13.7096738,-76.2004863
4137379189,San Andrés,,Trujillo,Perú,-8.1124142,-79.034039
4137525671,Hotel Cancay,,,Perú,-11.4662736,-76.6214039
4137713916,Arequipa,,,Perú,-12.0568912,-77.0330527
4138868504,Miraflores Pacific,https://www.miraflorespacifichotel.com/,Miraflores,Perú,-12.1200061,-77.0346615
4138931401,Hotel La Casona Inn,,,Perú,-3.7427956,-73.245301
4138932206,La Casona Inn,,,Perú,-3.7428099,-73.2452806
4139172574,Novotel Lima,http://www.novotel.com/lima,San Isidro,Perú,-12.0960025,-77.0365206
4139795989,El Conquistador,https://www.hostalelconquistador.com/,Arequipa,Perú,-16.3997025,-71.5324386
4143758803,Hotel Kame,,,Perú,-9.9143728,-76.2283844
4143758806,Koky's Hotel,,,Perú,-9.9519551,-76.2501329
4143759346,Gran Hotel de la Vega,,,Perú,-9.9560614,-76.247899
4143759631,Baraka,,,Perú,-9.9126405,-76.2250448
4144439489,Hostal Cruz de legua,,,Perú,-7.1770521,-78.4886785
4150231322,Hotel Monaco,,,Perú,-12.0543706,-75.2189391
4150235178,Hotel Amankay,,,Perú,-13.6152414,-72.866543
4150292537,Hotel El Encuentro,,,Perú,-11.8670198,-77.0171653
4152483289,Hotel Casona Plaza Centro,,,Perú,-15.8412414,-70.0273264
4153612490,Yolanda Hostal,,,Perú,-18.0105521,-70.2581567
4156282015,San Juan,,,Perú,-13.657251,-73.3861017
4156358318,Central,,,Perú,-13.6563785,-73.3872832
4156373082,Palacio Real,,,Perú,-13.6563746,-73.3874227
4157971289,Saya Wasi,http://www.saya-wasi.com,,Perú,-13.5134317,-71.9744506
4158672989,Pacha Confort,https://www.pacha.pe,Puno,Perú,-15.8253146,-70.0112268
4164185189,Oasis Paraiso Ecolodge,,,Perú,-15.5967774,-71.9753543
4165323289,Koyllur Inn,,,Perú,-13.5163653,-71.9726371
4166625589,Pacha hostel,https://www.pacha.pe,,Perú,-15.8367841,-70.0285811
4172178399,Tambo Colorado Hostal,,,Perú,-13.709532,-76.2042059
4178954486,Aquavit Hotel,,Asia,Perú,-12.7626182,-76.6048254
4179350047,Hospedaje Rey Port,,,Perú,-12.5956349,-69.1782891
4179388630,Monte Amazoniea Lodge,,,Perú,-12.5741382,-69.0528627
4179393817,Paititi,,,Perú,-12.5968065,-69.1792448
4179434889,Anaconda Lodge,,,Perú,-12.5981102,-69.2177429
4181514419,Hotel Union Real,,,Perú,-13.5328642,-71.9240479
4182188581,Dona Rita La Casona,,,Perú,-13.2277013,-70.7535646
4183731195,Hostal Cuenca,,,Perú,-7.1585782,-78.5097317
4186656799,El Reducto,http://www.hotelelreducto.online/,Miraflores,Perú,-12.1206845,-77.02248
4188405189,Balsa Inn,,,Perú,-15.8417717,-70.0283263
4189712107,Hotel Arequipa,,,Perú,-15.837142,-70.0277954
4190869758,Sandoval Home Lodge,,,Perú,-12.6093426,-69.0352536
4190873799,Lodge,,,Perú,-12.6103888,-69.0370245
4190873818,Las Americas,,,Perú,-12.6325673,-69.1843856
4190874063,La Habana,,,Perú,-12.6535315,-69.179918
4195841676,Hostal residential,,Arequipa,Perú,-16.3951399,-71.5322607
4196399290,Cusco Pardo Hotel,http://www.cuscopardohotel.com/,,Perú,-13.5253003,-71.9736179
4197540333,San José,,,Perú,-16.3949716,-71.5374009
4199047270,Hotel Pacaypampa,,,Perú,-15.4866151,-70.1242242
4199730889,Hospedaje Las Américas,,,Perú,-11.7641527,-76.3045009
4199829589,Lynik La Casa de Blanco,,,Perú,-11.9743843,-77.0829749
4201532389,HOTEL LOS OLIVOS VIP,,,Perú,-12.0075918,-77.0621374
4203545890,Hotel Qasikay,,,Perú,-13.6355249,-72.8803722
4203549890,Hotel Ibeth,,,Perú,-13.5164456,-73.7210515
4204455600,Los Gavilanes,http://www.losgavilaneshotel.com.pe,,Perú,-8.3611446,-74.5739282
4206175990,Cristal Palace,,,Perú,-13.6553071,-73.3893418
4206175992,El Eden - Adan y Eva,,,Perú,-13.655572,-73.3894551
4206247791,Hotel Fani Luz Vela,,,Perú,-15.2119354,-72.8896511
4207399697,Hotel Villa,,,Perú,-15.2119659,-72.8893815
4207446689,Hotel Bello Horizonte de Cotahuasi,,,Perú,-15.2109393,-72.8906984
4208420725,El Mirador de Nasca,,Nasca,Perú,-14.8275737,-74.9364535
4210801492,Tierra Viva Cusco Centro,,Cusco,Perú,-13.5206641,-71.9806928
4214319694,Del Pilar Miraflores Hotel,https://delpilarhotels.com/,Miraflores,Perú,-12.1197519,-77.0300925
4214483588,Rumi Wasi,,,Perú,-13.5145125,-71.9800573
4214640496,hostal Inti-Wasi,,,Perú,-9.5283385,-77.5270946
4214681294,DCO'S,,,Perú,-12.0552233,-77.0436464
4214687990,Cayesh Guesthouse,,,Perú,-9.5283468,-77.5268682
4216596964,La Gran Muralla,,Tingo María,Perú,-9.2992191,-76.0035102
4217919689,Hospedaje Familiar SIHUAR,,,Perú,-13.5127648,-71.9760755
4220088692,Hotel Nuna,,Lima,Perú,-12.0796783,-77.0896429
4220729890,Hotel Feijoo Tumbes,,,Perú,-3.5698741,-80.4583844
4221985494,hostal Sebastian,,,Perú,-12.0616152,-75.214613
4222050390,hotel Valencia,,,Perú,-13.1581594,-74.2219262
4222050391,Hotel Tito's,,Huánuco,Perú,-9.931341,-76.239708
4224725273,Puma's Inn,,Machu Picchu Pueblo,Perú,-13.153689,-72.5239619
4225565189,Hotel Real,,,Perú,-7.8164829,-78.050802
4227576572,Las Aldas,http://www.lasaldas.com/,La Gramita,Perú,-9.7117841,-78.2939085
4230867209,Hotel Maury,,Cercado de Lima,Perú,-12.0476662,-77.0309602
4230999991,Hotel Paris Lima*,,Cercado de Lima,Perú,-12.0498342,-77.0382736
4231074791,Gran America,,,Perú,-8.0941482,-79.0258743
4231935398,Hôtel Edu,,,Perú,-9.8988941,-76.9421674
4232085406,Hostal Bubamara,,Arequipa,Perú,-16.3938259,-71.5367399
4232489531,La estancia del angel,,,Perú,-16.4148764,-71.5272734
4233765090,Beausejour,https://www.beausejour.com.pe/es,Arequipa,Perú,-16.4071518,-71.5429912
4235384300,Totorani Inn,,,Perú,-15.8328804,-70.0279836
4240813289,Residencial El Dorado,https://www.hospedajeeldoradotarma.com/,,Perú,-11.4182433,-75.6886199
4242003404,Hostal y Restaurante El Naranjo,,,Perú,-5.8964912,-76.1046364
4242284189,Flamante Hotel and Suit,,Jesús María,Perú,-12.0720143,-77.0388181
4242297689,Flamingo,,Lima,Perú,-12.0686439,-77.0378548
4243808889,Atelier Hotel Boutique,,Miraflores,Perú,-12.1313209,-77.0282129
4244875289,Palacio,,,Perú,-9.3006826,-76.0039419
4245225993,Bona Nit Hostal,http://www.bonanithostal.com,,Perú,-8.1062476,-79.0269931
4245225994,Hospedaje Eco,,Lagunas,Perú,-5.2256765,-75.6750558
4245225995,Hospedaje Gamayumi,,,Perú,-5.2177075,-75.6685555
4245250389,Hospedaje Lagunas,,Lagunas,Perú,-5.2255191,-75.6753379
4247022589,Los Nevados,,,Perú,-9.5267626,-77.5281098
4248337202,Marfil del Amazonas,,,Perú,-3.7476132,-73.2469273
4248828048,Hospedaje Momentos,,,Perú,-6.491525,-76.3806022
4250591130,Hotel El Huarango,,,Perú,-14.055119,-75.7619311
4250592571,Belle Sand,,,Perú,-14.052391,-75.7641547
4250752992,Le Foyer Arequipa,https://www.hlefoyer.com,Arequipa,Perú,-16.3964959,-71.535299
4252446815,,,,Perú,-3.5008546,-80.3891844
4253102591,Luz de luna,,,Perú,-8.3826105,-74.5296347
4253574226,Las Palmas,,,Perú,-14.0556565,-75.7602976
4253731289,Hotel Cholcana,http://www.cholcana.com/,Miraflores,Perú,-12.1222617,-77.0330636
4253864593,Llaqta,http://www.llaqtaperu.com/,Miraflores,Perú,-12.1292465,-77.0325787
4253943889,Casa Inca Boutique,,Miraflores,Perú,-12.1300893,-77.0326272
4254309891,,,,Perú,-13.231169,-70.7539374
4254337789,,,,Perú,-13.2310106,-70.7535505
4255505592,Hostal Casa de Virgina,,,Perú,-15.580925,-72.008926
4255506190,Hostal Las Brisas,,,Perú,-4.2220906,-69.9599427
4255540890,Mama Queta,,,Perú,-13.5155426,-72.8133054
4255552591,Jamuy Guesthouse,http://jamuyreservas.wix.com,,Perú,-13.5140293,-71.9789502
4255596989,John Inn Hostal,http://www.hostaljohn.com,,Perú,-13.1547434,-72.5248125
4261702989,Sideral,,Arequipa,Perú,-16.39386,-71.5324632
4263388892,Huchuy Wasi,,,Perú,-15.8346542,-70.0312633
4264095390,The Point,,barranco lima,Perú,-12.1472204,-77.0233589
4264853789,Tambo,,Miraflores,Perú,-12.1307516,-77.0264473
4265226401,Monte Azul,https://hotelmonteazul.pe/,,Perú,-6.4853188,-76.3619658
4267088394,Hotel Amazonas,,,Perú,-6.8690596,-78.1461305
4267137691,Hostal Amazonas,,,Perú,-6.2296691,-77.8718491
4267137692,Hostal Revash,,,Perú,-6.2292028,-77.8718799
4267161889,Hostal El Tambo,,,Perú,-6.2287932,-77.8728648
4267161989,Dorado Hostal,,,Perú,-6.2290178,-77.8735398
4267161992,Hotel Venecia,,,Perú,-6.870268,-78.1460448
4267162289,Hostal Karajia,,,Perú,-6.2292586,-77.8710612
4267162290,Hotel Fortaleza,,,Perú,-6.2292019,-77.8709933
4267540591,Hotel Selva Real,,,Perú,-6.0315936,-76.9721191
4267934489,Hotel Orquidea del Mayo,,,Perú,-6.0320229,-76.9746799
4267941790,Hotel Plaza Moyobamba,,,Perú,-6.0328559,-76.9750127
4267993501,Mirador de Santa Ana,http://miradordesantaanacusco.com/,,Perú,-13.5137795,-71.9864318
4268034989,Hotel Los Cedros del Libano,,,Perú,-6.0338556,-76.9768899
4269712090,El Gran Hotel,,,Perú,-5.1481154,-79.0025592
4270122699,Hotel Marbella,,,Perú,-4.103641,-81.0522049
4270694491,La Posada Inn,,,Perú,-6.4873577,-76.3606158
4270697496,Hotel Tarapoto Inn,,,Perú,-6.4885297,-76.3600834
4270697497,Hotel San Antonio,,,Perú,-6.4884854,-76.3602716
4270699392,Hotel Luna Azul,,,Perú,-6.4879764,-76.3582762
4270699394,Hosteria Residencial Sandiego,,,Perú,-6.488742,-76.3582437
4270699400,Hotel Cielo,https://hotelcielo.net/,,Perú,-6.4860606,-76.3619759
4270705490,Hotel Nilas,https://hotelnilas.com,,Perú,-6.4881619,-76.3587925
4270707390,Hotel Pacifico,http://www.pacificotarapotohotel.com,,Perú,-6.4886922,-76.3609605
4270836718,Hotel Beatrrici,,,Perú,-12.0658664,-77.073574
4270937990,Hostal Arcano,,,Perú,-13.513469,-71.976191
4271298491,Hotel Rosas,,,Perú,-15.2783565,-73.3450328
4271299189,N ***,,,Perú,-15.2778852,-73.3441506
4272205495,Hotel Cerro Verde,,,Perú,-6.4853132,-76.3640584
4272227695,Hotel Suyox Tarapoto,,,Perú,-6.4849488,-76.3644671
4272435504,Huanca Huanca,,,Perú,-15.2809473,-73.3450147
4272440628,Pampino,,,Perú,-15.2791462,-73.3439302
4274712993,Fátima inn,,,Perú,-6.4875666,-76.360773
4277045693,hotel sosa,,,Perú,-9.5189789,-77.5326595
4277464396,Palau Amazonas Hotel,,,Perú,-3.7506083,-73.2471189
4277464399,Hotel Marañon,http://www.hotelmaranon.com,,Perú,-3.7480344,-73.24388
4277464400,La Casona Rio Grande,,,Perú,-3.748415,-73.2442627
4277464401,Hotel del Perú,,,Perú,-3.7510997,-73.2452219
4277465031,Hotel Europa,https://www.hoteleuropaiquitos.com,,Perú,-3.7528206,-73.2461361
4277465194,Royal Inn,,Iquitos,Perú,-3.7550757,-73.2488272
4277465299,Hotel Morona,,,Perú,-3.7509487,-73.2474361
4277465300,Hotel Acosta,http://www.hotelacosta.com,,Perú,-3.7493512,-73.2464123
4277489092,Ari's Hotel III,,,Perú,-3.7538006,-73.2468746
4277506189,Allison Hotel,,,Perú,-3.7527502,-73.2459468
4277506389,Hotel Sandalo,,,Perú,-3.7540932,-73.24676
4279087894,Doral Inn,,,Perú,-3.7483949,-73.2428017
4279099892,Hotel Anaconda,,,Perú,-3.7519028,-73.2464289
4279100590,Granhotel Maranon,,,Perú,-3.7454107,-73.2442386
4279513038,Hostal Shalea,,,Perú,-14.9158027,-69.8676788
4279513039,Hotel Posada del Puente Putina,,,Perú,-14.915733,-69.8676118
4281293797,Alojamiento Turistico Tahuar,,,Perú,-3.7349895,-73.2412532
4281294193,Apart Hotel,,,Perú,-3.7579267,-73.2505643
4281294699,Oti Cerva Hotel,,,Perú,-3.7581659,-73.2513378
4281342760,Hotel La Planicie de Pico Alto,,,Perú,-12.3332415,-76.8298956
4284227490,,,,Perú,-12.0058469,-77.0533974
4285427090,Hostal Premier,,,Perú,-16.4078631,-71.5386747
4286110590,Laguna Blanca,,,Perú,-11.18159,-74.6526723
4286923592,inkarri,,,Perú,-13.5180607,-71.9732037
4287871700,Grisman,,,Perú,-14.9146561,-69.8644137
4288681589,Hotel Arequipa Center,,Arequipa,Perú,-16.4020906,-71.5377223
4291046437,Luis Antonio,,,Perú,-5.8959436,-76.1072475
4291486091,La Ensenada,,,Perú,-7.160199,-78.4775447
4293879114,Hotel El Panamericano,,,Perú,-13.5390433,-72.6956454
4293887889,Hotel Luz de Luna,,,Perú,-8.3827865,-74.5297302
4296503394,Park Hostel,,,Perú,-16.4018235,-71.5331051
4297303891,Lorenzo Lodge,,,Perú,-13.0043074,-72.6282391
4299261755,Hospidaje Municipal,,,Perú,-16.1428684,-70.5403775
4299418989,Yarabi,,,Perú,-16.4050287,-71.5387897
4301219852,Hotel Peach Garden,,,Perú,-12.0423446,-77.0295908
4301449693,Calucho,,,Perú,-11.046901,-75.321224
4303412401,Hostal Sosa,,,Perú,-9.9461567,-76.2427822
4304540657,Hotel Casa Villa,,Paucarpata,Perú,-16.4237436,-71.5151283
4306542892,Hotel San Francisco,,,Perú,-14.0637193,-75.7307677
4306542893,Hotel Galindo,,,Perú,-14.0617042,-75.730402
4306701794,Hotel Machu Picchu,,,Perú,-14.061755,-75.7301907
4306769790,Hotel Arameli,,,Perú,-14.0622326,-75.7302436
4306770191,Nuevo Siesta Hotel,,,Perú,-14.0622347,-75.7284746
4307396894,Posada Don Giorgio,,,Perú,-15.8378397,-70.0292264
4307481391,Hostal Galaxia,,,Perú,-9.5288499,-77.5310364
4308090490,Hostal Los Ficus,,,Perú,-8.3789973,-74.53754
4308090719,Hotel Hiroq,,,Perú,-14.0670789,-75.7286486
4313811991,Villareynal Hotel,,Miraflores,Perú,-12.1266779,-77.0297908
4313910790,El mirador del Inca,,,Perú,-7.1576125,-78.5209013
4314435676,Rima Rima,https://www.hotelrimarima.com/,,Perú,-9.1402032,-77.7435348
4316561213,Hotel Residencial Embajadores,,,Perú,-15.4899683,-70.1304538
4317293797,Hotel Loma Verde,,,Perú,-11.932289,-75.3127129
4318018472,La Cordillera Blanca,,Caraz,Perú,-9.0470843,-77.8088208
4319885593,Prince,,,Perú,-13.4180767,-76.1332066
4319886101,Hotel Lima,,Chincha Alta,Perú,-13.4191261,-76.1335291
4320508989,Hostal Cielo,,,Perú,-16.4101515,-71.5359508
4324362791,La posada del arriero,,,Perú,-13.6328423,-72.8835373
4324802890,Casa Vieja,,,Perú,-6.2297245,-77.8736536
4324806190,Hostal Paraiso,https://hotelparaisotrujillo.com-book.com/,,Perú,-8.1126863,-79.031421
4326588696,La Gran Muralla II,,,Perú,-9.2974114,-76.0022328
4327203993,Hospedaje Rosita,,,Perú,-3.7579743,-73.2539041
4327527890,Santo Domingo,,,Perú,-13.5211893,-71.9761686
4328115291,Hostal Chaviña,,,Perú,-11.799808,-77.1406362
4328314612,Hotel Alexandro,,,Perú,-16.4000546,-71.5302582
4328353356,Inkari,,,Perú,-16.3968491,-71.5372628
4329535239,Casona Las Magnolias,,,Perú,-9.5237035,-77.1571742
4329535240,Hotel Erick,,,Perú,-9.5265439,-77.1572828
4330111108,Hospedaje Amazon Breeze,,,Perú,-3.7480422,-73.2418064
4330830795,Costa Blanca,,,Perú,-4.1320505,-81.1015303
4331565850,Posada Santa Barbara,http://hotelposadasantabarbara.com,Chucuito,Perú,-15.8961275,-69.8893917
4332460140,Apolo Hotel,,,Perú,-12.1023181,-77.0193103
4332684099,,,,Perú,-14.1126296,-69.046736
4332706991,Hostal Americano,,,Perú,-15.041243,-70.3664598
4332972684,Hospedaje Miraflores,,,Perú,-15.4858949,-70.1232141
4334043194,Alojamiento El Paisa 01,,,Perú,-6.4842842,-76.3662806
4334107291,Hotel Rio Rolo,,,Perú,-6.4834376,-76.364043
4334949889,Las Orquídeas,,,Perú,-5.1959985,-80.64459
4334950389,Las Orquídeas 1,,,Perú,-5.1923732,-80.6422014
4335496089,Casa Grande hotel,,,Perú,-6.7640612,-79.8381443
4336085861,Tito,,,Perú,-16.4000189,-71.5331722
4336284489,,,,Perú,-14.1640943,-73.5742662
4336879792,Hospedaje Huaytita,,,Perú,-13.5850118,-74.3523682
4337635290,Hospedaje Calle del Sol,,,Perú,-6.8357012,-79.9353457
4337651704,Los Tambos,https://www.lostambos.com.pe/,Arequipa,Perú,-16.3988529,-71.5381687
4337651716,Tikary,,,Perú,-16.3976363,-71.5383537
4339716591,Inkamerica Hospedaje,,,Perú,-7.15517,-78.5181279
4340096491,"Hospedaje ""Emely""",,,Perú,-7.1517665,-78.5153686
4340117290,Hospedaje Cabellos,,,Perú,-7.1538565,-78.5179675
4340473993,Hotel Hispano,,,Perú,-7.1513687,-78.5226073
4340769192,,,,Perú,-15.0405123,-72.2750557
4340782691,Alojamiento Andino,,,Perú,-13.2188965,-75.1042932
4340782693,,,,Perú,-13.360359,-74.8567827
4345280989,Hotel San Francisco,,,Perú,-7.1528573,-78.5176511
4345281089,Hospedaje Ana María,,,Perú,-7.1538036,-78.5167447
4345281489,Hotel Sierra Verde,,,Perú,-7.1616539,-78.5140867
4345347119,hospedaje Oxapampa,,,Perú,-10.5741705,-75.4034727
4346583190,Tauro,,,Perú,-9.4722337,-78.3007535
4348807671,Hospedaje Villa Madre Perla,,,Perú,-11.5740979,-77.2710893
4348808148,Hotel Chancay,,Chancay,Perú,-11.57366,-77.2713501
4348845458,Aranwa,,,Perú,-13.5170698,-71.9812488
4348845468,Cusco Oblitas Casa Hotel,,,Perú,-13.5157614,-71.9803242
4348845474,Royal Inka,,,Perú,-13.5169663,-71.9807036
4350115784,Andean Wings,,,Perú,-13.515997,-71.9817296
4350116794,Carcilaso,,,Perú,-13.517757,-71.9807165
4350322181,illa,,,Perú,-13.5144156,-71.9752916
4352018206,Tierra Sur,,Arequipa,Perú,-16.4014659,-71.5380273
4354152347,Ramada,,,Perú,-13.5162545,-71.9808182
4356147893,Hotel puente piedra,,,Perú,-11.886859,-77.0661668
4357557006,Aires del Colca,,,Perú,-5.1627621,-80.655293
4357881417,Hotel Cascas,,,Perú,-7.4791162,-78.8178663
4357887106,Augusto Hotel Plaza,,,Perú,-7.4796187,-78.8190754
4358153889,El Tambo,,,Perú,-9.5269595,-77.5322893
4358905993,Hotel Tambo del Inca,,,Perú,-10.4734635,-76.9924072
4358936895,Hostal Henry,,,Perú,-4.5064272,-73.5736774
4358943590,,,,Perú,-6.4946269,-76.3738211
4359145391,Hostal KING'S,,,Perú,-12.0396516,-77.0966434
4359423991,Hotel Lorena's,,,Perú,-7.4791814,-78.8196349
4359466689,Hospedaje Danielito,,,Perú,-7.4815535,-78.8184065
4360655091,Hostal Triángulo de las Bermudas,,Chiclayo,Perú,-6.7663408,-79.8342982
4364159103,Nik's,,,Perú,-16.3531337,-71.568248
4364754068,Estrella Marina,,,Perú,-13.8361038,-76.2481366
4365037032,Terra Viva,https://tierravivahoteles.com/es/tierra-viva-cusco-machu-picchu/,Machu Picchu Pueblo,Perú,-13.1544111,-72.5268584
4365037037,Kcuychi,,,Perú,-13.1546129,-72.5258962
4367302291,Hotel Clarita,,,Perú,-10.0691405,-75.5503621
4367774804,Santorini,,,Perú,-9.9303658,-76.2372155
4367931003,Novotel,,Cusco,Perú,-13.5174293,-71.9757325
4369495204,Hospedaje Dulce Sueño,,,Perú,-9.5269381,-77.5298933
4369496900,Hospedaje Berlin,,,Perú,-9.5254165,-77.5309928
4369505698,Hospedaje Alpamayo,,,Perú,-9.5265192,-77.5327689
4370460469,Casa Andina,,,Perú,-13.4141992,-76.1495578
4371017754,Hostal Plaza,,,Perú,-8.8206578,-77.4609235
4371193937,Hostal Sihuas,,,Perú,-8.5558682,-77.6283443
4372087985,Hanan,,,Perú,-16.4027585,-71.5415285
4372100208,Casagrande,,Vallecito,Perú,-16.4041782,-71.5413706
4373534393,Pirámides,,,Perú,-16.3847393,-71.5193476
4375126697,Los Portales,,,Perú,-9.9066955,-76.2263238
4375127091,Hotel Marrio's,,,Perú,-9.3081233,-76.0013124
4375127092,Hotel Pillkomarka,,,Perú,-9.9558971,-76.2479938
4375656496,Hospedaje Municipal,,,Perú,-12.3269165,-76.27798
4375741240,Casa Serena,,Miraflores,Perú,-12.1217418,-77.0242244
4377440290,the blue house,,,Perú,-13.5137942,-71.9738708
4377443190,Casita de san Blas,,,Perú,-13.5118512,-71.9763434
4379031100,Anturio Hostal,,,Perú,-18.0127283,-70.2506783
4381121192,Toromata,,,Perú,-12.0161662,-76.8748088
4381228299,El Cabildo,,,Perú,-7.1579596,-78.5191736
4382123290,Taurus Hostal,http://www.hostal-taurus.com/,,Perú,-5.1961912,-80.6285634
4382668590,Hostal el Peral,,,Perú,-16.3938069,-71.5308897
4382668689,Hotel Viñas Queirolo,https://www.hotelvinasqueirolo.com/,San José de los Molinos,Perú,-13.9776723,-75.6902635
4382668690,Hostal Diamante Chimbote,,,Perú,-9.0822016,-78.5765566
4383792890,Casa Andina Talara,,,Perú,-4.575035,-81.2753003
4386223092,Yacurona,,,Perú,-5.8949573,-76.1032781
4386307494,Park Hotel Lima,,,Perú,-12.1332804,-76.9833943
4392846392,Hospedaje El Parque Lodge,,,Perú,-13.1540386,-72.5255666
4394265389,"Hospedaje ""San Juan""",,,Perú,-9.9646329,-76.2462913
4394292389,Sol de Mancora,,,Perú,-4.1039468,-81.0520032
4395400553,Intitambo Hotel,,,Perú,-13.2564497,-72.2631531
4399296519,Civa Hostal,,,Perú,-12.0581131,-77.0313788
4399296564,Sakura,,Barrios Altos,Perú,-12.0578619,-77.0293381
4400511996,Hostel Genesis,,,Perú,-12.0824304,-77.0799462
4401234192,Hostal Turiky's,,,Perú,-10.8097396,-76.8753851
4407533889,Hospedaje Estrella,,,Perú,-15.3659203,-70.3668498
4407533989,Hospedaje San Andrés,,,Perú,-16.2467891,-69.0946706
4408481890,Sonesta El Olivar,https://www.sonesta.com/es/pe/lima/sonesta-hotel-el-olivar-lima,San Isidro,Perú,-12.0978583,-77.0352953
4409869891,shanda,,,Perú,-12.5175798,-73.8271322
4415198856,Hotel América,,Breña,Perú,-12.061642,-77.0461567
4415775492,Hotel Arequipa,,,Perú,-17.1933206,-70.9335875
4418154592,Sueño del Rey,,,Perú,-7.7577903,-74.9221159
4421062989,hospedaje iveeth,,,Perú,-9.0342658,-75.507336
4421062990,hospedaje iveeth 1,,,Perú,-9.0365451,-75.5065064
4421305389,amistad,,,Perú,-12.8664058,-72.6943239
4421842301,Hotel Los Portales,,,Perú,-5.9865631,-79.7458137
4422284540,Trapiche,http://www.trapichelodge.com,,Perú,-10.5720513,-75.4069788
4422284542,Olimpico,,,Perú,-12.0683705,-75.209414
4422452091,Hotel Rio Huallaga,,,Perú,-5.8961791,-76.1031073
4422529891,Hotel Huallaga,,,Perú,-5.8943402,-76.1043357
4424039189,Rustic House,,,Perú,-4.1040707,-81.0529227
4425409090,Hotel Caylloma,,,Perú,-15.1897895,-71.769857
4427121115,Hostal Tony,,,Perú,-8.0914084,-79.0363125
4427132206,Hotel Internacional,,Arequipa,Perú,-16.4020664,-71.5352756
4427835628,Hotel Vico,https://www.hotelviza.com/,Arequipa,Perú,-16.4008823,-71.5333724
4429121889,Rumi Wasi Hospedaje,,,Perú,-15.6278171,-71.6464357
4434303292,Quilla,,,Perú,-13.6369623,-72.8824036
4434387894,Hospedaje San Marcos,,,Perú,-12.0620999,-77.0838523
4435266589,Hotel Bella Horizonte,,,Perú,-10.8550728,-77.7042947
4436918189,Santa Bárbara,,,Perú,-17.6472453,-71.3460005
4443027605,Hotel Corregidor,,Arequipa,Perú,-16.3973713,-71.5296039
4443152089,kamisea,,,Perú,-12.8669866,-72.6959624
4444029290,Sunset Hostal,,,Perú,-11.573027,-77.2703603
4446411165,Hotel Calicanto Inn's,,Cusco,Perú,-13.5196034,-71.9794822
4447009890,Hospedaje Las Orquídeas,,,Perú,-3.5666238,-80.4549496
4451121561,Hotel Presidente,,,Perú,-12.0463393,-77.0312412
4452970792,Hospedaje El Encuentro,,,Perú,-12.1867438,-76.9794045
4453843764,Hostal Samani,https://www.hostalsamani.com/,,Perú,-13.5136242,-71.9775023
4456686390,Illari,https://terramisticahotelarequipa.com/,Vallecito,Perú,-16.4054222,-71.5424348
4458081995,Hostal El Paraiso,,,Perú,-13.639306,-72.8857108
4459842689,Hostal Silmar,,,Perú,-18.0100131,-70.2467707
4459896189,La Colmena,,,Perú,-12.0529911,-77.0323368
4462504092,El Príncipe,,,Perú,-14.0612122,-75.7295769
4463131691,Virgen de Copacabana,,,Perú,-14.2204893,-69.1540828
4463770096,Kokopeli paracas,,,Perú,-13.8339921,-76.2503722
4464469389,Margarita's House,,,Perú,-13.1563662,-72.5230526
4464707989,Hostal ROGER's,,,Perú,-7.1542892,-78.5141894
4470510352,Hotel Palace,,Santa Beatriz,Perú,-12.0788901,-77.036172
4471858387,Royal Garden,,Lince,Perú,-12.0814913,-77.0343123
4477910594,,,,Perú,-12.0073557,-77.0115514
4479542189,Hotel Roma,,,Perú,-3.5706198,-80.4589463
4482945793,,,,Perú,-12.0511717,-77.0305359
4486076914,San Gregory,,,Perú,-16.4054279,-71.5389449
4487208590,Hotel los Nogales,,,Perú,-10.1535805,-77.1572702
4487703791,Hostal Pamela,,,Perú,-6.3774511,-78.8190098
4487703891,Hotel panoramico,,,Perú,-6.3844896,-78.8173515
4487703892,Hotel rancho,,,Perú,-6.3829849,-78.8161726
4487703990,Hostal Perez,,,Perú,-6.3778013,-78.8178801
4487703992,Hostal la plazuela,,,Perú,-6.3767466,-78.8156595
4487724090,Hotel megadi,,,Perú,-6.3830983,-78.816292
4487724091,Hotel Juan,,,Perú,-6.3773918,-78.8185738
4487724092,Hostal jordan,,,Perú,-6.3760932,-78.8156765
4487724093,Hostal camila,,,Perú,-6.3768284,-78.8150151
4487730507,Hotel 22 de octubre,,,Perú,-6.3772104,-78.8173965
4487730508,Hotel Damasco,,,Perú,-6.3767848,-78.8182201
4487730509,Hotel Verde,,,Perú,-6.3762356,-78.8165062
4487730510,Hotel 22 octobre,,,Perú,-6.3772238,-78.8173873
4487730511,Hotel Casa grande,,,Perú,-6.3835292,-78.8220602
4487730512,Hotel catala,,,Perú,-6.3790076,-78.8173036
4487734989,Hotel oscar,,,Perú,-6.3819789,-78.8162411
4487734990,Hotel loren'z,,,Perú,-6.3777802,-78.8186244
4487734991,Hotel Don Sheque,,,Perú,-6.3761056,-78.8171752
4487734992,Hostal Gamonal,,,Perú,-6.3818819,-78.8171144
4487735089,Hostal Perez,,,Perú,-6.3773491,-78.817651
4487735389,Hostal damasco,,,Perú,-6.3769114,-78.818176
4488098481,Hotel Basconsuelos,,,Perú,-13.1043575,-72.0441372
4488098483,Hospedaje Rumi Wasi,,,Perú,-13.1106163,-72.0557793
4499101591,Hostal Quilla House,,,Perú,-13.5287618,-71.9515799
4500973560,Casa Arequipa,https://www.arequipacasa.com/,Arequipa,Perú,-16.405202,-71.543149
4501734390,Casino de la guardia civil,,,Perú,-12.0551534,-77.0385325
4504245593,"Hotel ""El Conquistador""",,,Perú,-9.1007998,-78.5666486
4504342696,"Hostal ""El Búnker""",,,Perú,-9.1019754,-78.5679134
4504543591,,,,Perú,-9.1019594,-78.5675152
4505417760,Montaña Jazz,https://montanajazzperu.com/,Carhuaz,Perú,-9.2897541,-77.6328126
4507471390,,,,Perú,-7.3355801,-78.1699647
4510791487,Britania,https://hbritania.com/,San Borja,Perú,-12.1003073,-77.0001944
4511376890,Hostal Bora Bora - Mancora,,,Perú,-4.1059986,-81.0558108
4514628292,moscow,,,Perú,-11.9536271,-76.9818535
4518440390,Brando 1,,,Perú,-10.73099,-73.7510617
4519261589,Gran Rey,,,Perú,-3.9061341,-70.5170686
4522149991,Casa de chistama,,,Perú,-13.5317975,-71.9746408
4522439089,Hospedaje Florcita,,,Perú,-13.1603724,-74.2288725
4526631096,Hostal Central,,,Perú,-17.6449848,-71.3444511
4526637492,Hospedaje El Amigo,,,Perú,-13.6887389,-71.62526
4526751090,Hostal El Imperador,,,Perú,-14.2720663,-71.2291944
4526751189,Hostal Don Zenon,,,Perú,-14.1876329,-71.3436681
4527612189,hospedaje Choquequirao,,,Perú,-13.1285903,-72.59366
4528673605,El Titanic,,,Perú,-8.0893102,-79.0089543
4528673617,Dubai,,,Perú,-8.0879592,-79.0092734
4535334897,DKALETA - RESTOBAR Y HOSPEDAJE,,,Perú,-17.9987832,-70.2523276
4536383090,Hostal Brisas del Titicaca,,,Perú,-16.2130164,-69.4584676
4537842593,Hotel Casino San Felipe Inn,,,Perú,-9.0757368,-78.5929281
4538489330,Cali Hotel,,,Perú,-16.5613322,-69.0368043
4538522097,San Agustin El Dorado,,,Perú,-13.5197599,-71.9770018
4540455889,,,,Perú,-11.997439,-77.1026342
4541444205,,,,Perú,-16.4484334,-71.5924698
4547073327,Maya Inn,,Puno,Perú,-15.8376323,-70.0201825
4547437889,Hotel B,,Barranco,Perú,-12.1431038,-77.0232806
4554284491,WARMI,,,Perú,-6.7067032,-79.903597
4555707289,Casa del mochilero,,Miraflores,Perú,-12.1183934,-77.0399755
4559360996,Hotel Jorfran,,,Perú,-10.1863758,-75.1511436
4560601593,Hotel Miraflores,,,Perú,-16.3989378,-71.5196273
4560916494,Hostal Ayacucho,,,Perú,-8.1160894,-79.028273
4560992892,Hospedaje Moon Night,,,Perú,-5.1970559,-80.6292199
4560993390,Los Corregidores,,,Perú,-8.1102022,-79.0282453
4560993691,Hostal Latino,,,Perú,-5.1962988,-80.6296082
4560993792,Alojamiento Turistico El Mirador,,,Perú,-6.484973,-76.3561481
4560993891,Hospedaje Lourdes,,,Perú,-3.571048,-80.4572806
4561145789,Hospedaje Santa Teresa,,,Perú,-13.1289241,-72.5934711
4563666135,Tambopata Ecolodge,,,Perú,-12.8247696,-69.4027299
4563671292,Chaska Wasi Hostel,,Ollantaytambo,Perú,-13.2601063,-72.2633128
4575469290,La Casa de Sillar,,,Perú,-16.3946604,-71.5319478
4575469291,Sol Imperial,,,Perú,-15.6358525,-71.6020458
4575489089,Duque Inn,,,Perú,-15.8439734,-70.029351
4575975895,B&M hospedaje,,,Perú,-14.0579464,-75.7374397
4578392796,Hotel Misky Puñuy,,,Perú,-14.3879529,-73.9619031
4582919965,The Wawa Hotel,,,Perú,-4.1065053,-81.0583955
4582919966,Don Giovanni,,,Perú,-4.1064249,-81.0586713
4583244090,Raymi,,,Perú,-8.1085533,-79.0297631
4584784800,Hotel Eclipse,,,Perú,-13.6363967,-72.8881757
4587027398,Hostal Jasmin,,,Perú,-5.8903993,-76.1084495
4588311184,,,,Perú,-12.0297272,-77.0930278
4593834891,Torre Blanca,,,Perú,-17.6550694,-71.3471921
4594955889,Manantial Club,,,Perú,-16.4549075,-71.823864
4596623789,Hospedaje Chifa,,,Perú,-4.9311048,-80.3439739
4598097297,Hostal Huagancu II,https://hostalhuagancu.com/,,Perú,-9.3481492,-77.1715454
4598819404,TAC,,,Perú,-12.1256775,-77.0182785
4601582895,Hotel Inca,http://www.hotelincachavin.com/,,Perú,-9.58875,-77.1784628
4602296522,Hostal Chavin Turistico,,,Perú,-9.5903163,-77.1782878
4604146989,Aventura,,,Perú,-11.9042701,-77.0579881
4605847692,Roja hotel,,,Perú,-15.6378866,-71.6018487
4606973824,La Casona Del Olive,http://www.casonadelolivo.com,Yanahuara,Perú,-16.3874387,-71.5409268
4608345798,Hotel El Gran Blanco,,,Perú,-4.831621,-76.5533664
4611101417,Code de Lemos,http://www.condelemosinn.com,,Perú,-15.8414787,-70.0293218
4612363034,,,,Perú,-12.7660174,-76.6033087
4612364426,,,,Perú,-12.7980753,-76.5681198
4612364446,Asia Beach,,,Perú,-12.7991043,-76.5690853
4617144704,,,,Perú,-15.6378635,-71.601888
4620739589,La siesta hospedaje y bungalows,,,Perú,-4.1452435,-81.1101344
4621155889,El Brujo,,,Perú,-8.121697,-79.034999
4621520589,Hotel David,,,Perú,-4.8307895,-76.5564211
4621666889,Hospedaje Mio Amore,,,Perú,-11.9979591,-77.1005373
4622990591,Mayolo cochera,,,Perú,-12.0464222,-75.2015415
4631153375,Paracas Sunset,https://www.paracassunset.com/,,Perú,-13.834793,-76.2491896
4634087691,Mochiks,,,Perú,-6.7746331,-79.8380488
4639788790,Hospedaje Villa Dorada,,,Perú,-11.1310604,-75.377012
4643370491,Hotel Imperial Suite,,,Perú,-18.0141186,-70.2457736
4649136490,Hotel Canu,,,Perú,-4.8296792,-76.5525286
4649230892,Hotel La Posada Del Apu,,,Perú,-4.8293455,-76.5536981
4663700705,San Sebastian,http://sansebastianhuaraz.com/,,Perú,-9.5276873,-77.5227672
4664854793,Mantra,,,Perú,-17.0278433,-72.0164762
4673857389,Hospedaje Confort,,,Perú,-5.1936004,-80.6284881
4675638729,Yaravi Hotel,,,Perú,-16.3921433,-71.5380405
4678468690,Sabor y Pasion,,,Perú,-9.1154764,-78.5102147
4681626542,El Patio de Monterrey,https://elpatio.com.pe/,,Perú,-9.4706937,-77.5378784
4683730889,,https://www.petitpalace.pe/,,Perú,-12.11715,-77.0326085
4687461690,Grand Hotel Illescas,,,Perú,-5.5642134,-80.8187858
4687832690,Hospedage Inti y Aqu,,,Perú,-3.9487234,-80.9460148
4688669189,Ibiza,,,Perú,-16.6248228,-72.7121292
4689470806,Helena B&B,,,Perú,-8.1146333,-79.0427274
4691349641,Hotel Takshamarka,,,Perú,-9.102149,-77.0167984
4691349642,Hotel Vidal,,,Perú,-9.101855,-77.0172973
4691349643,Hotel Izquierdo,,,Perú,-9.1005811,-77.0162969
4696204389,Hostal Kero,,,Perú,-13.5207148,-71.9810301
4698515989,,,,Perú,-8.1005713,-79.0271151
4703701954,Hotel Casa Campo Suites & Convenciones,,Cayma,Perú,-16.383887,-71.5464378
4706786391,Joe Inn,,,Perú,-13.1547507,-72.5249855
4710466289,SUCRE 1,,,Perú,-8.3872272,-74.5341853
4710910289,Mundo feliz,,,Perú,-6.6871077,-76.2234087
4714392689,Duo,,,Perú,-9.1424693,-78.5038983
4715829290,Maná hostel,,,Perú,-11.8323593,-77.1238065
4722442195,Hotel La Estación,https://hotellaestacion.com.pe/,Pacasmayo,Perú,-7.4009653,-79.5729342
4722665089,Hotel Fundo San Rafael,,,Perú,-14.8375009,-74.9440424
4723475966,Selva Alegre,,,Perú,-12.0814028,-77.0386316
4723476374,Karioca's Hostal,,Lince,Perú,-12.081631,-77.03927
4723485557,Tomodashi,,,Perú,-12.0810015,-77.038578
4724449613,Hotel Mallorca,,,Perú,-12.0808834,-77.0102082
4732392249,Larq'a Park Rooms,https://www.larqa.com/,Lima,Perú,-12.1231482,-77.0289846
4732634510,El Ancla,,,Perú,-8.0852332,-79.1224983
4733131321,,,,Perú,-12.0804006,-77.032777
4736130622,Hotel Loyer's,http://www.hotelloyers.com,,Perú,-6.8671404,-78.1451246
4739234222,Peter,,,Perú,-16.3880678,-71.5200395
4740267025,Hotel Killary,,,Perú,-7.1738147,-78.4925996
4741459725,cajamarca,,,Perú,-7.1514131,-78.5065621
4742043922,Sonqo killa,,,Perú,-15.6404329,-71.601614
4751797221,San Francisco,,,Perú,-16.3972465,-71.5357619
4754536146,Puente Blanco,,,Perú,-14.078151,-75.7386028
4759594000,B&B Miraflores Wasi Hotel,http://mirafloreswasi.com,,Perú,-12.1127127,-77.0318884
4761019425,Hospedaje Cóndor,,,Perú,-14.826312,-74.9378141
4761019427,Hostal Bella Italia,,,Perú,-8.10086,-79.0057917
4761019429,Hostal Sudamérica,,,Perú,-8.0844302,-79.1229943
4761893779,Excalibur,,Miraflores,Perú,-12.117031,-77.0385814
4762550123,Hostal Karaoke La Cascada,,,Perú,-18.0422962,-70.2508088
4763334845,Andenes,,Yanahuara,Perú,-16.3849596,-71.5381555
4763341924,Villa Hermosa de Yanque,,,Perú,-15.6489649,-71.6560503
4770376023,,,,Perú,-13.6344,-71.5283979
4776958247,Hostal Aurora,,,Perú,-7.1598357,-78.5144366
4779118421,Hostal Garcilazo,,,Perú,-12.0636103,-77.037782
4786846822,virgen del Carmen,,,Perú,-14.5099539,-71.8846458
4787091879,Hospedaje Las Palmeras,,,Perú,-3.7449833,-73.2501959
4787380022,hostal Angie's,,,Perú,-13.1540628,-72.5260044
4788434422,Hotel La Primacía,,,Perú,-12.0740879,-77.0339791
4801211422,,,,Perú,-12.0972348,-77.0119646
4807666989,El Cielo Hostal,,,Perú,-11.5404091,-75.9277802
4809733355,Hotel José Galvez,,,Perú,-9.9298397,-76.2392028
4811709221,La Llegada,,,Perú,-12.0765071,-75.3351911
4823921400,Hotel Los Ángeles,,Pampas,Perú,-12.398249,-74.8683347
4826254766,Hotel Preseidencial,http://www.khuska.com.pe/,Ciudad Mi Trabajo,Perú,-16.4397398,-71.5293811
4826397321,Hotel Pocollay,,,Perú,-18.0059837,-70.2211829
4828012027,Los colochos,,,Perú,-12.0833961,-76.9750122
4829891525,Hotel Imperial,,,Perú,-5.7571012,-78.4358144
4831795328,Hôtel Titanic,,,Perú,-5.1916831,-80.6300027
4837723008,Cabaña Quinta,,,Perú,-12.5943671,-69.1790721
4837724275,Hospedaje Royal,,,Perú,-12.5956968,-69.1792116
4837725017,Centenario,,,Perú,-12.5923959,-69.1824061
4839276959,Hostal Zipline,,,Perú,-13.117525,-72.5970142
4840494831,Villar International Hotel,,,Perú,-3.5702562,-80.458774
4840496825,Rizzo Plaza-Hotel,,,Perú,-3.5702924,-80.4585772
4840496826,Hotel Bolognesi,,,Perú,-3.5701914,-80.4587133
4840728024,Isis Hotel,,,Perú,-3.5688445,-80.4584637
4840746121,Hostal Frigate,,,Perú,-3.5689715,-80.4576105
4844609079,Hospedaje Cano,,,Perú,-12.0676441,-75.2093722
4844635930,Susan Hotel,,,Perú,-12.071393,-75.2087096
4844639429,Hotel Turismo,,,Perú,-12.0702801,-75.2079828
4844647121,Hotel Willcamayu,,,Perú,-13.4220727,-71.8487685
4844708359,Hotel Maria del Mar,,,Perú,-3.6747691,-80.6640778
4844708360,Hotel Costa Azul,,,Perú,-3.6747852,-80.6648398
4844708638,Punta del Sol Hotel Playa,,,Perú,-3.6420077,-80.6075404
4844708639,Nauti-K Beach Hotel,,,Perú,-3.6523237,-80.6173803
4844740243,Hostal Basauri,,,Perú,-12.9638584,-76.1443632
4844740244,Hotel Villa Sol,https://hotelvillasolperu.com/,,Perú,-12.9657776,-76.1470342
4844742236,Casa Grande,,,Perú,-13.0133768,-76.1659607
4844832129,Hospedaje Renso Beach,,,Perú,-3.6764988,-80.6666439
4844832130,Hostal Zorritos Plaza,,,Perú,-3.6808566,-80.6787133
4844832131,Pinamar Hotel,,,Perú,-3.6836495,-80.6890361
4844832137,Hotel Versilia,,,Perú,-3.7124991,-80.7264
4844832138,Kapraia,,,Perú,-3.7149938,-80.7420637
4844832140,Bamboo Lodge hotels & restaurants,,,Perú,-3.7491731,-80.7867153
4844832149,Hospedaje Miramar,,,Perú,-4.1065924,-81.0528735
4844835125,Hotel Blue Point,,,Perú,-3.6768194,-80.6669619
4844835129,Hotel Bungalows Palo Santo,,,Perú,-3.726048,-80.7602468
4844835132,Las Cherelas Adventure & Fishing Club,,,Perú,-3.9220267,-80.9012996
4844835133,Hotel Akas Inn,,,Perú,-3.9361504,-80.9241689
4844851721,Hotel Puerto Varas,,,Perú,-3.9348235,-80.9219318
4846388221,Panquita Juniors hospedaje,,,Perú,-12.9652858,-76.1457029
4846388222,Hotel Golden Inn,,,Perú,-12.9492007,-76.1408349
4846388421,Hotel Viñas del Sol,,,Perú,-12.945767,-76.1314735
4846676224,Hotel Punta Pariñas,http://www.hotelpuntaparinastalara.com,,Perú,-4.576728,-81.2671322
4847823221,Hotel Yuri Gagarin,,,Perú,-12.9682913,-76.149366
4847925887,La Posada Del Fraile,,,Perú,-16.3977488,-71.5371885
4848032943,Hostal Maison Plaza,,,Perú,-16.3989088,-71.5375826
4851891824,Huaros,https://huarosaqp.wixsite.com/hostalhuaros,Arequipa,Perú,-16.3984622,-71.5397139
4854456423,,,,Perú,-12.8004951,-75.8909494
4856285057,El Puerto Hotel,,,Perú,-7.3978102,-79.5680459
4856285058,Hotel El Mirador,,,Perú,-7.3978894,-79.5700839
4856285142,Hotel Libertad,,,Perú,-7.3989781,-79.5678329
4856480726,Casa Maracaná,,,Perú,-12.5809298,-69.2009166
4856553423,Hotel Pakatnamu,,,Perú,-7.4009344,-79.5729198
4856553522,Hotel Irmantalo Inn,,,Perú,-7.3996798,-79.5712918
4858068199,,,,Perú,-4.6312264,-79.8278319
4858068202,,,,Perú,-4.6311082,-79.8275048
4858851528,Hotel El Dorado,,,Perú,-12.0714074,-76.9551984
4860779325,Hotel Taurus,,,Perú,-8.0522967,-79.0555058
4860783422,Hotel el Sol Dorado,,,Perú,-8.0805416,-79.0459214
4860783423,Hotel Sol y Luna,,,Perú,-8.0961179,-79.0383334
4862796230,Pullman Hotel,,,Perú,-8.1076392,-79.0243424
4862797122,Hostal Zara,,,Perú,-8.1022241,-79.0279924
4862797123,Hotel Jorge Chavez,,,Perú,-8.1066415,-79.032871
4862797322,Hostal Mansiche,,,Perú,-8.1069696,-79.0323743
4863243121,Los Amigos Biological Research Center,,,Perú,-12.5691977,-70.1001879
4867288222,Hotel Mana,,,Perú,-8.5388527,-78.6778462
4867293822,Hotel Marvento,,Chimbote,Perú,-9.0922079,-78.5708314
4867293922,San Pietro Hotel,,,Perú,-9.1002088,-78.5623063
4867356121,Hotel Arco Iris,,,Perú,-9.1276201,-78.5311847
4868821723,,,,Perú,-9.5256509,-77.5303623
4868821724,,,,Perú,-9.5254721,-77.5303661
4868864121,,,,Perú,-9.5300694,-77.5225398
4870844223,Iguana hostel,,,Perú,-15.837587,-70.0293895
4873064223,,,,Perú,-9.5259681,-77.5291716
4874904228,Hotel Leydy,,,Perú,-3.4962523,-73.0904998
4880018923,Zepita,,,Perú,-16.495589,-69.1033967
4880430722,Hotel Roshio,,,Perú,-18.0493716,-70.2442507
4880787722,Carmel Hotel,https://www.hotelcarmel.com.pe/,Miraflores,Perú,-12.1185085,-77.030212
4880787822,Allpa Hotel & Suites,https://allpahotel.com/,Miraflores,Perú,-12.1181508,-77.0304795
4880788121,Hotel Tinkus Inn,http://www.hoteltinkus.com/,Miraflores,Perú,-12.1178798,-77.0298188
4880887021,,,,Perú,-5.1837744,-80.6378413
4880940221,Casa Cielo,,,Perú,-12.1204764,-77.0334696
4882085923,José Antonio Deluxe Hotel,https://www.hotelesjoseantonio.com/es/hotel-joseadeluxe-en-lima/,Miraflores,Perú,-12.119812,-77.0318531
4882221822,,,,Perú,-12.2038194,-75.800418
4882221823,,,,Perú,-11.7018425,-76.2681728
4882233021,,,,Perú,-12.6645889,-75.3241084
4882233022,Hospedaje Municipal,,,Perú,-11.4079372,-76.3390336
4882237822,Hospedaje El Romance,,,Perú,-7.1541497,-78.5141217
4885806823,Eden,,,Perú,-16.4058499,-71.5391404
4886039622,Hotel El Doral,https://www.eldoralhotel.com/,Miraflores,Perú,-12.1188673,-77.0331928
4886687429,Hotel Rosedale,,,Perú,-12.0890938,-77.0331369
4886687430,Hotel Fenix,,,Perú,-12.0890838,-77.0332676
4886687623,Los Tallanes Hotel & Suites,,,Perú,-12.0947194,-77.0355167
4886687723,NM Lima Hotel,https://www.nmlimahotel.com/,San Isidro,Perú,-12.1070955,-77.0357695
4886687724,Hotel Lexus,http://www.lexushotel.com/,Miraflores,Perú,-12.1140826,-77.03365
4886691521,Grand Hotel Betsy,,,Perú,-12.1092075,-77.0357882
4890540821,Suites Real Apart Hotel,,,Perú,-12.1066396,-77.0389426
4890540921,Hotel Regency,,,Perú,-12.1142396,-77.0375202
4890540924,Hotel Runcu Inn,https://www.hotelruncu.com/,Miraflores,Perú,-12.1194624,-77.0421467
4890540930,Hotel Estelar Miraflores,https://www.hotelesestelar.com/es/hotel/hotel-estelar-miraflores,Miraflores,Perú,-12.1243688,-77.0291837
4890680328,Inka Dream Hotel,,,Perú,-13.5130366,-72.8134315
4892637623,,,,Perú,-8.0826208,-79.1213733
4898421830,Hotel Sebastián Inn,,,Perú,-12.083874,-77.0376234
4901533622,Las Palmeras,,,Perú,-12.6256039,-73.7882634
4902255054,Alojamiento El Buen Descanso,,Tarapoto,Perú,-6.492065,-76.3633296
4902814339,Hospedaje Alpha,,,Perú,-5.7541233,-78.4450949
4909774525,Hospedaje Santa Rosa,,,Perú,-15.8371234,-70.0253312
4909774526,Hospedaje Don Tito Inn,,,Perú,-15.8370265,-70.025079
4909782026,Puñuy Wasi Inn,,,Perú,-15.8387719,-70.0261601
4911699725,Hostal Vylena,,,Perú,-15.8417377,-70.0278247
4911699734,Gran Puno Inn,,,Perú,-15.8369507,-70.0280224
4911699738,Hotel Margarita,,,Perú,-15.8369978,-70.0293027
4911704126,Royal Inn Hotel,,,Perú,-15.8412886,-70.028121
4911704521,Hospedaje Titikaka Sumag Wasy,,,Perú,-15.8384562,-70.0299631
4911704527,Hotel Italia,,,Perú,-15.8345366,-70.0302929
4913844322,Hospedaje Rosal Inn,,,Perú,-15.8469104,-70.0159374
4913868222,Hostal Romance,,,Perú,-12.0767556,-77.0365443
4915659338,Puma Wasi,,Ollantaytambo,Perú,-13.2586758,-72.2627925
4915660343,Hacienda Hotel Plaza de Armas,,,Perú,-15.8408816,-70.0276772
4915662968,El Portal de San Lázaro,https://www.elportaldesanlazaro.com/,Arequipa,Perú,-16.3927017,-71.5340497
4916473025,Venture,,,Perú,-13.4169958,-76.1303729
4917257890,La Selva,,,Perú,-12.5158509,-73.824431
4917642621,Hospedaje Kanoa's,,,Perú,-8.3873626,-74.5348089
4919570411,Santa Maria,,,Perú,-16.3967402,-71.5319174
4929589822,Hospedaje El Romance,,,Perú,-7.1539916,-78.5139318
4931618921,Hospedaje valentina,,,Perú,-10.6682364,-76.2573787
4935780421,,,,Perú,-4.1375261,-81.104649
4937330726,El Bosque Backpackers,,,Perú,-13.2624286,-72.2685569
4937514222,La Florida,,,Perú,-8.3826662,-74.537567
4942033227,Villa Estelita,,,Perú,-9.7265844,-77.4536262
4942425995,Hotel Chavin,,,Perú,-9.5893248,-77.1771318
4947722048,Hospedaje Mi Casa,,,Perú,-9.9262964,-76.2378931
4947722735,Hostal Amazonas,,,Perú,-9.3008353,-75.9992366
4947822021,Eltingo,,,Perú,-6.3791416,-77.905518
4947822121,El Sótano,,,Perú,-5.1442253,-78.9990832
4948091622,Hotel y Restaurant La Pachamama,,,Perú,-4.1058691,-81.0566487
4948714548,Posada Inkawasi,,,Perú,-17.1906231,-70.9491676
4949717670,Hotel Las Palmeras de Asia,,,Perú,-12.75921,-76.6015927
4949717673,Los Arcos de Imperial,,,Perú,-13.0712003,-76.339924
4951567623,Hotel Golf y Country Club,,,Perú,-8.1397015,-79.0327057
4953576621,La Fortaleza del Inca,,,Perú,-13.0143394,-76.1663683
4953576622,Hotel Regina,,,Perú,-12.9568649,-76.1411569
4955860411,DUKE Guest House,,San Sebastián,Perú,-13.5221301,-71.94068
4957730323,Sumayaq Hostel,,Cusco,Perú,-13.5176659,-71.9829396
4957730324,Ollantaytambo Hostel,,,Perú,-13.1540358,-72.5254622
4958522024,Hotel Alis,,,Perú,-12.2858541,-75.7875917
4958522026,Hotel Judith,,,Perú,-12.286817,-75.6907174
4958532521,Hotel Tomas,,,Perú,-12.2385235,-75.7458109
4960498068,Hotel Villa de Arma,http://hotelvilladearma.com/,,Perú,-12.2986884,-75.8146575
4960723028,Hotel Villa Rica,,,Perú,-12.0749374,-75.2065126
4960723030,Hotel Jorge,,,Perú,-12.0776894,-75.2045202
4964243524,El Cauchero Hotel,http://www.laposadadelcauchero.com/,Iquitos,Perú,-3.7464206,-73.2418879
4967151021,Kantu Tampu Hospedaje,,,Perú,-15.6349648,-71.6021641
4968481921,El Condado,,,Perú,-13.4183818,-76.1315339
4968714022,Sun Palace Inn,,,Perú,-13.1553431,-72.5253304
4968960423,Kontiki Hospedaje,,,Perú,-15.6484371,-71.6598027
4971352221,Dm hoteles Ayocucho,,,Perú,-13.1589044,-74.2259598
4971380621,Hotel Picaflor,,,Perú,-14.8290174,-74.9387231
4976345225,Hotel La Luz,,,Perú,-13.5333054,-73.6788724
4976347521,Hotel Paraiso,,,Perú,-13.5166449,-73.7220258
4978398621,,,,Perú,-13.1536584,-72.5259986
4979595723,Hotel Pradera,,,Perú,-13.6574743,-73.3884155
4979597221,Hotel Las Terrazas Inn,,,Perú,-13.6583715,-73.3900177
4979597621,Sol de Oro,,,Perú,-13.6576763,-73.388135
4979597622,Hotel Encanto de Apurimac,,,Perú,-13.6576133,-73.3883085
4979597623,Hotel Adan y Eva,,,Perú,-13.6570469,-73.3888367
4981175024,Hotel Milton,,,Perú,-13.6448613,-73.0863592
4983924324,Hotel Abancay,,,Perú,-13.6333519,-72.8765198
4983924327,Apurimac Tours Hotel,,,Perú,-13.6351466,-72.8793343
4983924329,Hotel Imperial,,,Perú,-13.635526,-72.8797784
4983924330,Hotel Turistas,,,Perú,-13.6352341,-72.8800512
4983924332,Ozi Wasi Hotel,,,Perú,-13.6358913,-72.8832624
4985907925,El Panamericano II,,,Perú,-13.5394167,-72.6963612
4985915021,Hotel Milett,,,Perú,-13.5385916,-72.6967786
4985915022,Hotel Flor de Anis,,,Perú,-13.5388983,-72.697414
4987259522,Hotel El Palacio,,,Perú,-13.479525,-72.4449432
4990723101,Loft de Barranco,,,Perú,-12.1369179,-77.0224501
4990834726,Tupac Yupanqui Palace,,,Perú,-13.5173414,-71.9760344
4990835626,La Lune one suite hotel,http://www.restaurantelesoleilcusco.com,,Perú,-13.5179716,-71.9756514
4991459327,Hotel Golden Peru,,,Perú,-13.5203257,-71.970999
4992998922,Hotel Condado,,Pisco,Perú,-13.7113169,-76.2040423
4993538022,Kunan,,,Perú,-13.5169978,-71.9747208
4993540324,San Agustin Internacional,https://www.hotelessanagustin.com.pe/es/hoteles/internacional-cusco/,Cusco,Perú,-13.518327,-71.9754797
4993541221,Hoteles Casa Campesina,,,Perú,-13.5170047,-71.9749553
4993541521,Hotel Ruinas,,,Perú,-13.5165538,-71.9753492
4993542021,Amerinka,,,Perú,-13.5187257,-71.9806026
4993542022,Hotel del Sur,,,Perú,-13.5213506,-71.9809919
4993542121,Monasterio del Inka Machupicchu,,,Perú,-13.5199334,-71.9797676
4993542421,Boz Art Hotel boutique,,,Perú,-13.5191972,-71.9771872
4993795422,Hostal Victoria,,,Perú,-6.7727973,-79.8358667
4995231225,La noche,,,Perú,-15.2091787,-72.8955098
4995328741,Teatro Inka,https://teatroinka.com/,Cusco,Perú,-13.5164595,-71.9822709
4998735424,Hotel Raulito,,,Perú,-14.1879781,-71.3437683
4998735427,Hotel Wilkamayu,,,Perú,-14.2612583,-71.2273206
4998853823,Hotel princess,,,Perú,-14.0561026,-75.7369589
5000717861,Tarata Lodge & Mirador,,,Perú,-17.4758423,-70.0360017
5001639223,Termas Tablachaca,,,Perú,-8.2091302,-77.9640213
5001639323,Rodríguez,,,Perú,-8.1459833,-77.9956727
5003922227,Hotel Mayas Inn,,,Perú,-15.4901396,-70.135815
5003922228,Hotel Maoba,,,Perú,-15.4912585,-70.1349127
5003922233,Hotel San Martin Inn,,,Perú,-15.4947426,-70.1318322
5003922927,Hotel San Roman,,,Perú,-15.4912722,-70.1325604
5003932433,Hotel Riveros,,,Perú,-15.491137,-70.132686
5004068121,Hostal D. E. Luna,,,Perú,-16.4012013,-71.535272
5006036481,Hospedaje Beniroom,,,Perú,-12.2540407,-76.9283676
5007998047,Corona,,,Perú,-17.0284556,-72.0163517
5009867527,Kame House,,,Perú,-9.5336997,-77.5252343
5009890824,Hotel resdential Vicky,,,Perú,-12.0299744,-77.0759157
5009900921,Huaraz Backpack,,,Perú,-9.5166236,-77.5331966
5009936795,Hotel Bermudez,,Pampas,Perú,-8.1953131,-77.8964654
5010286332,Hotel Diaz,,Pampas,Perú,-8.1950499,-77.8954825
5012294724,Laguna Surf Camp,,,Perú,-4.1042688,-81.0542984
5012321121,hotel Victoria,,,Perú,-12.7867224,-74.9728674
5012369923,Hotel Ascension,,,Perú,-12.7871936,-74.9727332
5012845724,hospedaje Garcilaso,,,Perú,-13.5228595,-71.9742765
5012914518,The Desert of Ica,,,Perú,-14.0649604,-75.7291974
5012931600,Hospedaje El Marquez,,,Perú,-14.0658926,-75.7289087
5015026722,Casa de filmar puma,,,Perú,-14.2452308,-72.1294192
5017059026,Hospedaje Keyla,,,Perú,-5.0020655,-79.0883228
5022181522,La posada de Pumacahua,,,Perú,-13.5283216,-71.9674017
5024807622,Hotel Nesther,,,Perú,-15.8403362,-70.0267049
5029021091,Oriente Hospedaje,,,Perú,-13.4177781,-76.1358283
5029521684,Hospedaje Samarana,,,Perú,-14.0868634,-75.7638572
5029671428,Monteverde,,,Perú,-5.9424518,-77.9810578
5029689121,Cindy,,,Perú,-5.9440306,-77.9794121
5029693829,,,Pisco,Perú,-13.7106328,-76.2024009
5031397522,El Gatito,,,Perú,-5.9437377,-77.9791853
5033236244,Aries II,,,Perú,-5.9439161,-77.9793872
5035123926,Caja del Santa,,,Perú,-12.072662,-75.2045659
5035376864,,,Ayacucho,Perú,-13.1582778,-74.221404
5035415967,Mirasol,,Ayacucho,Perú,-13.1588543,-74.2188409
5035798718,Hopedaje Imperio,,Ayacucho,Perú,-13.159218,-74.2225377
5037847065,,,,Perú,-12.054462,-75.2198938
5037847084,Hotel Monaco,,,Perú,-12.0545577,-75.2189168
5037863836,El Picaflor,,Ayacucho,Perú,-13.1516461,-74.2138105
5039884981,,,,Perú,-13.1450149,-74.226648
5039884986,,,,Perú,-13.1451584,-74.2265736
5040064701,Sol de Huamanga,,,Perú,-13.1615921,-74.2290046
5040121223,Hostal Restaurant Cholo Vigo,,,Perú,-6.5105989,-77.849529
5040124821,RUMI,,,Perú,-13.4115129,-76.1251696
5040124921,,,,Perú,-13.4112189,-76.1247073
5041326834,HS Continental,,Ayacucho,Perú,-13.1637403,-74.2239457
5041326835,,,Ayacucho,Perú,-13.1637741,-74.2237896
5041591538,Hostal Sebastian,,,Perú,-12.0615468,-75.2146936
5041909267,Hotel la Breña,,,Perú,-12.0691887,-75.2109362
5041932232,Hotel Inkaspacha,,Cusco,Perú,-13.5211925,-71.9791487
5043084721,,,,Perú,-11.4192033,-75.6934824
5043637996,,,,Perú,-12.0704146,-75.2098427
5045517922,Inclan 449,,,Perú,-7.3347375,-78.1705883
5045517923,Sol Naciente,,,Perú,-7.334816,-78.1704109
5045517924,Barcelona,,,Perú,-7.3348114,-78.1713042
5045522121,Plaza,,,Perú,-7.3362179,-78.1708511
5047062322,Roagui,,,Perú,-7.6222901,-78.0469574
5048566021,Hotel Mayo,,,Perú,-6.0325796,-76.9738847
5048686476,Hospedaje Torre Torre,,,Perú,-12.0714571,-75.2086415
5049751013,Santa Rosa,,,Perú,-12.0708126,-75.2030413
5051631695,,,,Perú,-11.5486948,-75.9378793
5051657121,Restaurant Hospedaje Piscis,,,Perú,-7.8019751,-77.9840452
5051657321,Hostal Restaurant Puerto Lago,,,Perú,-7.8018792,-77.9840466
5051657521,Hostal Plaza,,,Perú,-7.815645,-78.0481113
5051741201,Hospedale Torres,,Huancayo,Perú,-12.0589371,-75.2138005
5051745406,Chavin Hospedaje,,,Perú,-8.1087378,-79.0282902
5051815806,Hospedaje Yomys,,Concepción,Perú,-11.9198093,-75.3147683
5052334584,,,,Perú,-11.7786389,-75.4971864
5055045323,El Poseidon,,,Perú,-6.2281214,-77.8732195
5062927921,Namaste,,,Perú,-13.7351231,-76.2216578
5063269523,El Milenio,,,Perú,-8.0939648,-78.1453563
5063269527,Hospedaje Jimar,,,Perú,-8.1315906,-78.0582296
5063269528,San José,,,Perú,-8.1326925,-78.0570594
5063304821,Hotel de Turistas Cachicadan,,,Perú,-8.093175,-78.1455467
5063304822,Hospedaje Jhoswil,,,Perú,-8.1324326,-78.0555367
5064175923,Hotel Plaza,,,Perú,-9.0939718,-77.3286463
5064314716,Hospedaje Pasion,,,Perú,-11.9594635,-77.0969915
5064718202,Via Sipan,,,Perú,-6.7701338,-79.8297534
5067015522,Hotel Mochiks,,,Perú,-6.7747703,-79.8383231
5067424623,Inka's Yllari,https://www.hotelinkasyllari.com/,,Perú,-13.527216,-71.9531875
5069290953,,,,Perú,-12.1712611,-76.9959376
5069358039,Atlantis,,,Perú,-8.1010226,-79.0444043
5069847214,El Sol,,,Perú,-6.7711839,-79.8444828
5069984393,Hotel Palma Real,,,Perú,-9.0795857,-78.5842624
5071831846,HS Royal,,,Perú,-6.7706878,-79.8431484
5074058848,,,Huarmey,Perú,-10.0673477,-78.1490856
5076423086,Hotel Bay-pass,,Pueblo Libre,Perú,-12.0861212,-77.0632199
5080428321,,http://rupawasi.net,,Perú,-13.1537171,-72.5263109
5081810531,Casa Del Maestro,,,Perú,-6.768294,-79.8368903
5084184295,Hostal San Miguel,,,Perú,-8.1070234,-79.0128856
5084734890,Hotel Taypikala Boutique Machupicchu,,,Perú,-13.1535598,-72.5230144
5084745441,Hotel Taypikala Cusco,,,Perú,-13.5210237,-71.974257
5086399912,Primavera Hotel,,Chiclayo,Perú,-6.7681175,-79.8402736
5086742547,,,,Perú,-8.1074635,-79.0149143
5087297033,El Principe HS,,Chiclayo,Perú,-6.7739366,-79.8360591
5088907392,Hotel Turismo,,Trujillo,Perú,-8.1125797,-79.0245903
5089727483,Hospedaje Estancia,,,Perú,-8.1139962,-79.0242548
5089727488,Hospedaje Milan,,,Perú,-8.1139318,-79.024197
5098197852,,,,Perú,-8.1147952,-79.0222746
5098392730,Hostal Atahualpa,,,Perú,-8.1144204,-79.0229312
5099082849,Casa Colibri Ecolodge,http://www.casacolibriecolodge.com,,Perú,-13.2942269,-72.1333686
5099141090,Inkari Eco Lodge,,,Perú,-15.6419508,-71.5914939
5107586735,Hotel Salgado,,,Perú,-9.1428608,-77.7437603
5110535556,Hostal Sterling,,,Perú,-9.3939585,-77.5761668
5110535557,Hostal Los Pilares,,,Perú,-9.2778057,-77.649923
5113868321,Hotel Los Portales,,,Perú,-9.5260998,-77.5266595
5113976522,Hotel Samuel,,,Perú,-9.527903,-77.5274786
5115293421,Suite Hotel Trujillo,,,Perú,-8.1081783,-79.0232049
5117317722,Hotel Habitaciones,,,Perú,-8.6549806,-78.2366868
5120264221,Hospedaje Geminis,,,Perú,-14.6089167,-70.7872767
5120597121,Hotel Rest. Grecia,,,Perú,-13.7302089,-76.2233135
5125664422,Hotel El Alamo,,,Perú,-9.174893,-77.7220289
5128767022,Crillonesa,http://www.hotelcrillonesaayacuchoperu.com,,Perú,-13.1627303,-74.2285427
5129476621,Hostal El Señorial,,,Perú,-8.5563256,-77.6302104
5136270523,Casa Blanca,,,Perú,-11.0994545,-75.3343232
5141561951,Las Americas,,,Perú,-7.1562063,-78.5167661
5143430622,Hostal Alpamayo,,,Perú,-8.6075314,-77.1481408
5149864722,Aipa Atiq Hotel,,,Perú,-4.6407481,-79.7151047
5152647325,Hotel Rinconcito Huallanquino,,,Perú,-9.8989161,-76.9415104
5152647326,Hotel El Pueblo Huallanca,,,Perú,-9.8988684,-76.9407971
5152652023,Hotel Mina Azul,,,Perú,-9.8977795,-76.9395797
5152652034,Gran Hotel con cochera,,,Perú,-10.1495029,-77.1572398
5153363627,Hostal Interoceanico,,,Perú,-8.5525366,-77.6328506
5154303321,Hostal Chunca,,,Perú,-10.8105946,-76.8749763
5155267722,Hotel Samary,,,Perú,-13.1591879,-74.22891
5155299222,Posada Junco y Capuli,,,Perú,-12.0591764,-75.2151273
5162281326,Premium,,,Perú,-11.879982,-77.0739024
5166662436,Turín,,,Perú,-15.4871229,-70.1428091
5167318422,Hospedaje Las Pasionarias,http://www.hslaspasionarias.com,,Perú,-12.012973,-77.0107126
5169774232,Crismar,https://www.hotelcrismar.com/,Arequipa,Perú,-16.3975837,-71.5351894
5170436622,Hotel Faraón,,,Perú,-18.0068771,-70.2501209
5175112422,Hostal Crillon,,,Perú,-4.1070457,-81.0524853
5175112521,Hostal Elica,,,Perú,-3.5675587,-80.4595954
5175737724,Sol de Atalaya II,,,Perú,-10.7315221,-73.7518947
5177362025,Samary,,,Perú,-14.5105796,-71.8846281
5178275422,Hôtel Arica,,,Perú,-6.7664167,-79.8407822
5179903390,HGZ,,,Perú,-16.4027431,-71.5378646
5179953984,Corona Suite Hotel,http://www.coronasuitehotel.com/,Arequipa,Perú,-16.4064287,-71.5384395
5180837552,Hotel Asturias Silver,http://www.hotelesasturias-peru.com/arequipa-silver.html,Arequipa,Perú,-16.3958828,-71.5359518
5181132224,Hotel La Merced,,,Perú,-8.8198986,-77.4604972
5189159415,Paititi,https://hotelpaititiaqp.com/,Yanahuara,Perú,-16.390115,-71.5455676
5189311829,Hotel restaurante Campas,,,Perú,-8.8186542,-77.4612848
5189586992,Los Leones Hotel Boutique,https://www.losleoneshotelboutique.com/,Yanahuara,Perú,-16.3842854,-71.5393877
5189604725,Casa Consuelo,http://www.casaconsuelohotel.com/,Arequipa,Perú,-16.4018614,-71.536876
5190834850,Maison du Soleil,http://www.maisondusoleil.com.pe/index.php/es/,Arequipa,Perú,-16.393217,-71.5338765
5190834872,,http://fundador.pe/,Arequipa,Perú,-16.3933127,-71.5334586
5190869185,Tierra Viva,,Arequipa,Perú,-16.3976571,-71.5345454
5190876673,Katari,http://katarihotel.com/es/,Arequipa,Perú,-16.3993297,-71.5373491
5190964523,Hospedaje El Chinito,,,Perú,-9.5271577,-77.530157
5190976922,Hospedajce Rajucolta,,,Perú,-9.528093,-77.5283544
5194380727,,,,Perú,-13.1344947,-72.1047058
5199246422,Hospedaje Micky,,,Perú,-10.7472772,-77.7596085
5203262355,Inkanto,http://inkantohotel.com,Vallecito,Perú,-16.4050461,-71.5426448
5203372070,Sacred Valley Lodge Urubamba,,,Perú,-13.2964371,-72.1347331
5203761821,Residencial Rey,,,Perú,-8.1879801,-76.5104939
5204817812,Queen's Villa Hotel Boutique,https://www.queensvillahotel.com/,Vallecito,Perú,-16.4078762,-71.5428766
5207342780,D'Sheratons,,,Perú,-12.0281943,-76.9258152
5208947856,Umacollo Inn Hotel,https://hotelvipumacollo.com/,Yanahuara,Perú,-16.4001351,-71.5465273
5208947865,Casa Rams,https://www.casarams.com/,Arequipa,Perú,-16.400437,-71.5462859
5213203122,"Hotel Cordillera Blanca, restaurante, cochera",,,Perú,-9.0165913,-77.8192358
5219149321,Hostal Bombay,,,Perú,-8.1074718,-79.0479701
5219536422,ENCANTOS,,,Perú,-13.4156985,-76.1327091
5221640033,Hospedaje Capuli,,,Perú,-13.3044525,-72.1153267
5221643825,Hospedaje Pino,,,Perú,-13.3045922,-72.1153635
5221646059,Hotel Quilla,,,Perú,-13.3037643,-72.1159377
5223230123,Hotel Planicie,,,Perú,-9.5219648,-77.1570945
5223230126,Hotel Casona Las Magnolias,,,Perú,-9.5238391,-77.1571533
5224925625,Hotel Tornillo,,,Perú,-9.5240003,-77.1549589
5228872721,Hotel La Colonia,,La Colina,Perú,-16.438689,-71.5603312
5230698422,Hotel Tang,,,Perú,-9.3491415,-77.1729849
5231427522,,,,Perú,-13.5148811,-71.9761719
5231548429,Hostal El Dorado,,,Perú,-9.3479915,-77.1710396
5233607075,Apu Huascaran Hostal,,Cusco,Perú,-13.5161293,-71.9736901
5235146125,Hotel Restaurante Tucu,,,Perú,-9.3490954,-77.1718853
5236961962,Hotel City Mar,,,Perú,-8.1421478,-79.053692
5244980121,El Mango,,,Perú,-10.0668719,-75.5508858
5244980122,Köhel,,,Perú,-10.0669305,-75.5504805
5247436462,Hostal El Encanto,,,Perú,-7.8946039,-79.2272125
5257475421,MISKI PUÑUY,,,Perú,-13.4115127,-76.1248498
5261484863,,,,Perú,-12.0537695,-77.0868945
5261497395,Hotel Colonial,,,Perú,-12.0520679,-77.0878443
5262521441,San Felipe,,,Perú,-5.0080633,-81.0655326
5262730722,Cocos de Colán,,,Perú,-5.008501,-81.0653595
5262732489,Bungalows Spilberg,,,Perú,-5.0060267,-81.0662272
5268605401,Frente al Mar,,,Perú,-5.0078909,-81.0659271
5268605418,Hospedaje Yuby,,,Perú,-6.7588485,-79.8625556
5268800621,La 23 suite hotel,,,Perú,-9.0845443,-78.5710638
5269915536,Hotel España,,,Perú,-8.1871649,-76.5131011
5278348140,,,,Perú,-13.1307034,-72.5942542
5280284122,Jazmin,,,Perú,-3.3205438,-71.8613876
5283101672,Vincente de la Vega,,,Perú,-6.7699945,-79.842993
5284110521,,,,Perú,-3.7183061,-73.2416328
5296428521,Hospedaje Horiz,,,Perú,-5.7091813,-78.8070954
5296490821,Hotel Posada del Arriero,,,Perú,-6.230306,-77.8719486
5300986934,La isla,,,Perú,-4.2233566,-69.9586315
5302704221,Hotel Tamia,,,Perú,-9.5364524,-77.5271546
5305630222,hostal Ginza,,,Perú,-10.7561223,-77.7568261
5309711633,Golden Sunrise Machupicchu,,Machu Picchu Pueblo,Perú,-13.1570249,-72.522374
5310424521,Pacifico,,,Perú,-16.423857,-71.5436656
5310620622,Hostal America,,,Perú,-12.1138332,-77.0213033
5310642320,Casa Andina,,,Perú,-6.7713977,-79.8465793
5311986123,Hospedaje El Nuevo Amanecer,,,Perú,-5.1890094,-80.6122396
5312051522,Hotel Villa del Sol,,,Perú,-5.1936045,-80.637403
5312051523,Hospedaje El Bosque,,,Perú,-5.1890687,-80.6124381
5312051524,Hospedaje El Eden,,,Perú,-5.1890453,-80.6123648
5312301310,La Florida,,,Perú,-11.9921488,-77.0982629
5312324744,Hotel Rocca's,,,Perú,-10.4909635,-76.5163891
5312324745,Jamaywasi,,,Perú,-10.491346,-76.5133663
5320524240,Casa Samay Mountain View,,,Perú,-13.2507647,-72.2622205
5320524770,Eras,,,Perú,-6.7703961,-79.839143
5324204221,Hospedaje Henrys,,,Perú,-11.2506287,-74.6378252
5328236772,Isis Hotel,,,Perú,-3.567404,-80.4573394
5331495421,Hotel Adria'n,,,Perú,-5.7561617,-78.441534
5331660321,Gamboa,,,Perú,-4.2257568,-69.9562043
5332256199,,,,Perú,-16.4163369,-71.4802611
5333120221,Hostal Costa Azul Cochera,,,Perú,-17.1867453,-70.9444635
5335117210,Hospedaje Rafael,,,Perú,-13.6874927,-71.6260563
5335117856,Hotel Imperial,,,Perú,-14.0690476,-70.4310308
5342200921,Mundo,,,Perú,-5.0844409,-81.1157411
5347976230,Hotel Las Vegas,,,Perú,-9.5204256,-77.5329937
5347976321,Hotel Sierra Nevada II,,,Perú,-9.5210683,-77.5321845
5347976723,Hotel Punta Olímpica II,,,Perú,-9.5200326,-77.5329922
5353550817,Hotel Casio,,Chavinillo,Perú,-9.8570224,-76.6075269
5354798751,B&B de Kike,https://lima1night.com/,,Perú,-11.9749122,-77.0853257
5357933632,,,,Perú,-11.8840597,-77.0691561
5367420223,Libertad Jungle Lodge,,,Perú,-4.5293853,-73.4531494
5369197756,Hotel Golden Inn,,Puerto Maldonado,Perú,-12.5951569,-69.1779368
5371504850,Hotel Municipal,,San Mateo de Huanchor,Perú,-11.7593302,-76.2992633
5376997490,,,,Perú,-16.3653826,-72.1925991
5377022421,Hostal Palace,,,Perú,-16.3663103,-72.1936146
5380967422,Hospedaje Jenny,,,Perú,-4.1045972,-81.0522329
5382084525,Mikaeve,,,Perú,-10.1012607,-78.1402126
5383255722,El Encanto,,La Victoria,Perú,-12.064687,-77.03227
5389948128,Casa Vieja,,,Perú,-9.8994851,-76.9406676
5395983121,Hotel Continental,,,Perú,-9.531867,-77.5197388
5400246721,Hospedaje Christian,,,Perú,-17.6473741,-71.3449936
5408794415,Condor City,,,Perú,-16.3643801,-72.1907981
5408795814,Costa del Sol,,,Perú,-16.3642328,-72.1903903
5412796733,El Descanzo,,,Perú,-16.3641807,-72.1911498
5412806638,,,,Perú,-16.3617398,-72.1914949
5412839330,Anubis,,,Perú,-16.3587335,-72.1870587
5412840323,Riviera,,,Perú,-16.3583363,-72.1876623
5413439905,,,,Perú,-16.3608368,-72.191343
5415332027,,,,Perú,-16.3612465,-72.188584
5419149222,Ramirez,,,Perú,-7.8140374,-78.0502732
5419149223,Hostal Rio Bravo,,,Perú,-7.8140409,-78.0494868
5419149224,Hostal Cardagi,,,Perú,-7.8138598,-78.0492956
5419149321,Hostal Johel,,,Perú,-7.6230579,-78.0458969
5419149322,Hostal Reyes,,,Perú,-7.8140738,-78.0493964
5419149722,Hostal Bona-nit,,,Perú,-7.8138571,-78.0491716
5423449223,Hostal San Francisco,,,Perú,-7.8148493,-78.0478223
5423828121,Casa de Rosita,,,Perú,-12.1022566,-76.9986328
5426379922,Qúñi Wasi,,,Perú,-15.6346808,-71.6008383
5430110521,Costa del Sol,,,Perú,-10.0155246,-78.1936226
5431808222,El Condado,,,Perú,-11.1076916,-77.5946956
5438636171,El Mural Backpacker,,Tarapoto,Perú,-6.4811355,-76.3698517
5438675221,Illary Inn,,Machu Picchu Pueblo,Perú,-13.1561232,-72.523547
5440357316,,,,Perú,-11.4999861,-77.2070152
5460767624,Luis y Victoria,,,Perú,-14.0497018,-75.7564598
5465169821,Sumaq Hotel Tacna,,,Perú,-18.003626,-70.2413991
5465185321,El Encanto de Curahuasi,,,Perú,-13.541206,-72.6964268
5465267063,Patrick adventure,,,Perú,-9.0463326,-77.8095084
5467605951,Hospedaje Piolín,,,Perú,-6.4873374,-76.3628279
5473972321,Pacali,,,Perú,-14.0297389,-75.7019855
5479815940,Hotel Minero,,,Perú,-10.6686806,-76.7710373
5481546117,Atlantic City,,,Perú,-16.3562688,-72.1884752
5481567342,Del Piero,,,Perú,-16.3541717,-72.1892736
5484418623,Casa La Sambleña Inn,http://www.hotelsamblena.com,Cusco,Perú,-13.5243642,-71.9740151
5489105795,,,,Perú,-16.3650357,-72.1923896
5491268627,,,,Perú,-5.7632317,-80.8537268
5492359622,Atlantec Suite,,,Perú,-12.6871067,-73.7354375
5493884843,Posada del Rio,,,Perú,-14.5390749,-75.1823037
5497233421,Marina bay,,,Perú,-5.0841307,-81.1147165
5502951721,hotel Bolívar,,,Perú,-13.529994,-71.9360421
5514665921,Hotel Pollería El Progreso,,,Perú,-9.1416078,-77.7443214
5518514421,El Amigo,,,Perú,-3.3211351,-71.8605174
5519356822,Andean Tetra Hotel,http://www.andeanterrahotel.com,,Perú,-13.1541616,-72.5238139
5520640697,Rio Dorado,,Machu Picchu Pueblo,Perú,-13.1562864,-72.5228931
5520643722,Titiqaqa Lodge,,,Perú,-15.8164285,-69.9720582
5520780498,Lucero,,,Perú,-16.3639301,-72.1928539
5521335229,Hospedaje Municipal,,,Perú,-12.1137691,-76.1824904
5521335260,Hospedaje Romerito,,,Perú,-12.1133033,-76.1823125
5521422918,Hospedaje Nanfry,,,Perú,-12.1144518,-75.8266305
5521423231,La Casona de la Tía Aleja,,,Perú,-12.1145168,-75.8267943
5522793321,Hotel Victoria,,,Perú,-5.2043889,-80.6314166
5523041675,Hostal Machu Picchu inn,,,Perú,-13.5234735,-71.9763922
5523641763,Casa Morey,https://www.casamorey.com/,Iquitos,Perú,-3.7466019,-73.2420058
5532262021,Hostal Gulman,,,Perú,-5.1966424,-80.6417191
5536186721,Luchita,,,Perú,-9.0453156,-77.8103729
5536843322,,,,Perú,-15.4873517,-70.1233732
5538218337,Hotel Bussines,,,Perú,-9.0472963,-77.8068567
5538640294,Hotel Hacienda Puno,,,Perú,-15.8399496,-70.0269188
5538746121,Hotel El Pelton,,,Perú,-9.0524113,-77.8047537
5540968724,Hotel La Casa Blanca,,,Perú,-11.4283475,-74.4878493
5543273325,Hostal Alcala,,,Perú,-15.1349374,-72.7651757
5543929708,Crismay,,,Perú,-16.3641845,-72.1903637
5546037305,D Carlo,,,Perú,-16.3520208,-72.1904193
5546063828,Villa el Morador,,,Perú,-16.3604577,-72.1906364
5564205239,Hospedaje Fortuna,,,Perú,-11.427785,-74.489259
5567588872,Hotel Mediterraneo,http://www.hotelmediterraneoaqp.com,Yanahuara,Perú,-16.3933116,-71.5449832
5567601182,Musuk Wasi,https://musukwasi.com/,Yanahuara,Perú,-16.3982412,-71.5447925
5572327624,Hotel Rojo,,,Perú,-11.8328393,-77.1665704
5574831625,Quinta Falla,,,Perú,-6.1561258,-79.7156815
5581601621,,,,Perú,-9.1743413,-77.7223519
5590215021,Kimsa Hotel,,,Perú,-13.5138219,-71.9768094
5590551222,Riki House,,,Perú,-9.5356099,-77.5295564
5591121721,Hotel Rico,,,Perú,-10.6731703,-77.8193191
5595344971,Amapola,,,Perú,-9.9318725,-76.2458093
5595344972,Santa Ana,,,Perú,-9.9312489,-76.2465817
5601056621,El Retablo,,,Perú,-13.5136389,-71.9786887
5611392523,El Cantada,,,Perú,-13.5124308,-71.9766151
5612802353,Hr. Sans Suite,http://hrsanssuites.site90.net/,San Borja,Perú,-12.1007475,-77.0057127
5614448265,Hotel Country,,,Perú,-9.1201196,-78.5297584
5616544021,Pony’s Lodge,https://www.ponyexpeditions.com/,,Perú,-9.0488271,-77.8095691
5618266437,Hostal El Auqui Cusco,,Cusco,Perú,-13.5167265,-71.9726703
5624133321,Hatun Samay,http://www.hatunsamay.com/,Machu Picchu Pueblo,Perú,-13.1560178,-72.5234869
5625692621,HOTEL EL DORADO - SAN ISIDRO,,,Perú,-12.0983453,-77.0213188
5631508221,Los limoneros,,,Perú,-17.1931894,-70.9359363
5637240321,sol de Ica,,,Perú,-14.0648085,-75.72786
5640496621,Hospedaje del municipio,,,Perú,-16.273525,-69.2926524
5642160221,Brayan,,,Perú,-13.0055688,-72.5547924
5642739894,Hotel Post,,,Perú,-6.4842797,-76.3536314
5642865624,Hotel Nesther,,,Perú,-15.8397819,-70.0267992
5646184322,Hostal Emanuel,,,Perú,-15.1895939,-71.7699332
5648238024,Hotel del Inca Casona Q'uera,,,Perú,-13.5197535,-71.9793118
5661186365,Hostal Flores,,Namballe,Perú,-5.0027991,-79.0882175
5661187641,Flores,,,Perú,-5.2894312,-78.8076753
5661407722,,,,Perú,-14.8375652,-74.9454733
5661574522,Hotel Requejo,,Jaen,Perú,-5.7084257,-78.8083412
5662214162,Hotel la miranda,,,Perú,-5.5941688,-78.7850432
5662223834,Condor Palace,,,Perú,-13.1534019,-72.5232482
5662228621,Qory Condor Palace,,,Perú,-13.1535497,-72.5239168
5668170927,,,Zaragoza,Perú,-6.0302447,-76.9698791
5692918221,ASGAVER,,,Perú,-7.1531434,-78.5103094
5697669295,Hospedaje el mirador,,,Perú,-7.4624873,-78.1152609
5697669462,Darhjami Hostal,,,Perú,-7.6242287,-78.0441497
5699532073,Hostal Columbia,,,Perú,-17.1959051,-70.9362326
5703508523,Hospedaje Astria,,,Perú,-9.9311906,-76.2382698
5703508525,Finha,,,Perú,-9.9304493,-76.2430772
5703508621,Gran Hotel Confort,,,Perú,-9.9308527,-76.2406923
5703508622,Hotel Royal,,,Perú,-9.3004783,-76.0027088
5703508630,Hospedaje Villamar,,,Perú,-12.0687993,-75.2126918
5703508631,Hospedaje Izmir,,,Perú,-12.0675557,-75.2118569
5703509021,Hotel Miraflores,,Huánuco,Perú,-9.9312222,-76.2388915
5703509022,Hospedaje Kirei,,,Perú,-12.0691164,-75.2128616
5710122823,Hotel restaurante san cristobal,,,Perú,-9.8832636,-76.5031491
5711456167,Salkantay Lodge,https://www.mountainlodgesofperu.com/,,Perú,-13.3945251,-72.5744856
5711483291,Wayra Lodge,https://www.mountainlodgesofperu.com/,,Perú,-13.3277498,-72.6028748
5738254908,Hostal Tambo Alto,,,Perú,-10.8152395,-76.8766662
5739556721,,,,Perú,-15.8382302,-71.0927253
5739854487,7 Llaves,,,Perú,-11.0029662,-76.3637218
5739861417,Hospedache Maravilla,,,Perú,-11.0018735,-76.3640356
5741867722,Nak hoteles,,,Perú,-15.8456623,-70.0238185
5743544321,Mr Llama Lodge,,,Perú,-14.0888015,-75.7638763
5745779721,Quechuas Inka Palace,,,Perú,-15.83477,-70.0290779
5745826110,Albergue Don Bosco 6000,http://www.alberguedb6000.com,Carhuaz,Perú,-9.280845,-77.6463891
5747637522,Wakapunku,http://www.wakapunkuboutique.com,,Perú,-13.5152876,-71.9760214
5754091221,Mi Casa,,,Perú,-13.155628,-74.2259026
5757011655,Hotel Wasi,,,Perú,-7.8848946,-79.2203429
5771878554,,,,Perú,-13.8354259,-76.2478049
5774024253,Huastinito,,,Perú,-11.9417716,-77.070807
5774164892,Hostal restaurant San Critobal,,,Perú,-9.8832012,-76.503122
5774164959,Hotel Chaska,http://www.hotelchaska.com/,,Perú,-13.5291391,-73.6744289
5775700353,,,,Perú,-5.0251572,-81.0610963
5775853632,El Viajero,,,Perú,-9.9416949,-76.2396151
5776831053,Hospedaje Paraiso,,,Perú,-11.1223925,-75.3602876
5777155841,El Viajero,,Huánuco,Perú,-9.9320796,-76.2449187
5777697555,Hotel Epoca,https://epoca.com.pe/,,Perú,-3.7546838,-73.2457215
5787605862,Inka Hallpa,,,Perú,-13.518942,-71.9853467
5787730285,Landauro,,Huaraz,Perú,-9.5294265,-77.528358
5790180561,Hotel Lembranças,,Huánuco,Perú,-9.9341105,-76.2438399
5792792754,Mi Bello Horizonte,,,Perú,-5.7092619,-78.8071465
5792862456,Casa andina,,,Perú,-16.3920501,-71.5324777
5797669402,Hotel Chipa,,,Perú,-13.6358823,-72.8824307
5803731710,Cuesta Serena,https://cuestaserena.pe/,,Perú,-9.3645165,-77.5969318
5810460835,Jaa May,,Huánuco,Perú,-9.931352,-76.2430546
5811597854,Rio Blanco 273,,,Perú,-5.1871289,-80.6266057
5813779958,Hotel Hilton Resto,,,Perú,-13.8367391,-76.2551181
5816670453,Hostal Medieta,,,Perú,-13.8356819,-76.2490764
5819186753,Hotel Rosella,,,Perú,-14.0798694,-75.7369269
5819186755,Samari,,,Perú,-14.0768365,-75.7381391
5819186756,Hotel Arco Real,,,Perú,-14.0796612,-75.7365984
5819212953,Hotel Luciana,,,Perú,-14.0765987,-75.7395403
5821527354,Hostal Yanmarco,,,Perú,-13.6667922,-71.3219929
5821545853,Hostal l'Ausangate,,,Perú,-13.7189117,-71.2416808
5829459326,Hospedaje el Nogal,,,Perú,-13.6731182,-71.6772931
5831331091,Coco's Suite,https://www.facebook.com/cocossuitehotel/?locale=es_LA,Sullana,Perú,-4.9257597,-80.6960568
5833554543,Vargas,,Huánuco,Perú,-9.9300292,-76.2416277
5833554545,Cuzco,,Huánuco,Perú,-9.9301474,-76.2416828
5835058320,El Viajero,,Huánuco,Perú,-9.9303323,-76.2437017
5835280643,Atlantis,,Huánuco,Perú,-9.9297851,-76.2460014
5838964186,Paraíso Punta Mero,,,Perú,-3.8976488,-80.8629914
5839070786,Sancos,,,Perú,-15.061991,-73.9517889
5839104086,Hospedaje Taurus,,,Perú,-15.0007227,-73.9885184
5842704891,Pukara house,,Puno,Perú,-15.8416173,-70.0266919
5844883085,,,,Perú,-8.1129109,-79.0136766
5847540469,Hostal Andenes,,,Perú,-13.2585102,-72.2644671
5847540509,Casa de Mama,,,Perú,-13.2589245,-72.2647104
5849993501,Hostal Waynapata,,Machupicchu Pueblo,Perú,-13.1541301,-72.52508
5854040433,Real Hotel,,,Perú,-9.9294559,-76.2404855
5857402388,Royal Inka,,,Perú,-13.5165281,-71.9808875
5857419945,Cruz,,Chavinillo,Perú,-9.8561061,-76.6071044
5859527290,,,,Perú,-14.2867444,-74.8417405
5859527293,,,,Perú,-14.1315351,-74.9417918
5859527294,,,,Perú,-14.1315899,-74.9425925
5859529286,Hospedaje Samary,,,Perú,-14.2867851,-74.841538
5859529287,,,,Perú,-14.2867348,-74.8420636
5859529288,Hospedaje Don Alejo,,,Perú,-14.1324506,-74.9419831
5859529986,Hospedaje Municipal,,,Perú,-14.243454,-74.9200817
5859902040,Hospedaje Casita Campestre,,,Perú,-13.8826614,-71.2647913
5863917986,El Faro Adventure Resort,,,Perú,-7.4072863,-79.577784
5869330991,Don Valerio,,,Perú,-16.4073823,-71.5436493
5869758835,Grima,,,Perú,-9.9298474,-76.2382742
